{"executionTime":"2016-01-22 04:32:49 PM","stationBeanList":[{"id":72,"stationName":"W 52 St & 11 Ave","availableDocks":32,"totalDocks":39,"latitude":40.76727216,"longitude":-73.99392888,"statusValue":"In Service","statusKey":1,"availableBikes":7,"stAddress1":"W 52 St & 11 Ave","stAddress2":"","city":"","postalCode":"","location":"","altitude":"","testStation":false,"lastCommunicationTime":"2016-01-22 04:30:15 PM","landMark":""},{"id":79,"stationName":"Franklin St & W Broadway","availableDocks":0,"totalDocks":33,"latitude":40.71911552,"longitude":-74.00666661,"statusValue":"In Service","statusKey":1,"availableBikes":33,"stAddress1":"Franklin St & W Broadway","stAddress2":"","city":"","postalCode":"","location":"","altitude":"","testStation":false,"lastCommunicationTime":"2016-01-22 04:32:41 PM","landMark":""},{"id":82,"stationName":"St James Pl & Pearl St","availableDocks":27,"totalDocks":27,"latitude":40.71117416,"longitude":-74.00016545,"statusValue":"In Service","statusKey":1,"availableBikes":0,"stAddress1":"St James Pl & Pearl St","stAddress2":"","city":"","postalCode":"","location":"","altitude":"","testStation":false,"lastCommunicationTime":"2016-01-22 04:29:41 PM","landMark":""},{"id":83,"stationName":"Atlantic Ave & Fort Greene Pl","availableDocks":21,"totalDocks":62,"latitude":40.68382604,"longitude":-73.97632328,"statusValue":"In Service","statusKey":1,"availableBikes":40,"stAddress1":"Atlantic Ave & Fort Greene Pl","stAddress2":"","city":"","postalCode":"","location":"","altitude":"","testStation":false,"lastCommunicationTime":"2016-01-22 04:32:33 PM","landMark":""},{"id":116,"stationName":"W 17 St & 8 Ave","availableDocks":19,"totalDocks":39,"latitude":40.74177603,"longitude":-74.00149746,"statusValue":"In Service","statusKey":1,"availableBikes":19,"stAddress1":"W 17 St & 8 Ave","stAddress2":"","city":"","postalCode":"","location":"","altitude":"","testStation":false,"lastCommunicationTime":"2016-01-22 04:32:32 PM","landMark":""},{"id":119,"stationName":"Park Ave & St Edwards St","availableDocks":15,"totalDocks":19,"latitude":40.69608941,"longitude":-73.97803415,"statusValue":"In Service","statusKey":1,"availableBikes":4,"stAddress1":"Park Ave & St Edwards St","stAddress2":"","city":"","postalCode":"","location":"","altitude":"","testStation":false,"lastCommunicationTime":"2016-01-22 04:32:29 PM","landMark":""},{"id":120,"stationName":"Lexington Ave & Classon Ave","availableDocks":17,"totalDocks":19,"latitude":40.68676793,"longitude":-73.95928168,"statusValue":"In Service","statusKey":1,"availableBikes":2,"stAddress1":"Lexington Ave & Classon Ave","stAddress2":"","city":"","postalCode":"","location":"","altitude":"","testStation":false,"lastCommunicationTime":"2016-01-22 04:32:06 PM","landMark":""},{"id":127,"stationName":"Barrow St & Hudson St","availableDocks":21,"totalDocks":31,"latitude":40.73172428,"longitude":-74.00674436,"statusValue":"In Service","statusKey":1,"availableBikes":9,"stAddress1":"Barrow St & Hudson St","stAddress2":"","city":"","postalCode":"","location":"","altitude":"","testStation":false,"lastCommunicationTime":"2016-01-22 04:30:14 PM","landMark":""},{"id":128,"stationName":"MacDougal St & Prince St","availableDocks":9,"totalDocks":30,"latitude":40.72710258,"longitude":-74.00297088,"statusValue":"In Service","statusKey":1,"availableBikes":21,"stAddress1":"MacDougal St & Prince St","stAddress2":"","city":"","postalCode":"","location":"","altitude":"","testStation":false,"lastCommunicationTime":"2016-01-22 04:30:57 PM","landMark":""},{"id":137,"stationName":"E 56 St & Madison Ave","availableDocks":15,"totalDocks":46,"latitude":40.761628,"longitude":-73.972924,"statusValue":"In Service","statusKey":1,"availableBikes":30,"stAddress1":"E 56 St & Madison Ave","stAddress2":"","city":"","postalCode":"","location":"","altitude":"","testStation":false,"lastCommunicationTime":"2016-01-22 04:31:12 PM","landMark":""},{"id":143,"stationName":"Clinton St & Joralemon St","availableDocks":20,"totalDocks":24,"latitude":40.69239502,"longitude":-73.99337909,"statusValue":"In Service","statusKey":1,"availableBikes":4,"stAddress1":"Clinton St & Joralemon St","stAddress2":"","city":"","postalCode":"","location":"","altitude":"","testStation":false,"lastCommunicationTime":"2016-01-22 04:28:55 PM","landMark":""},{"id":144,"stationName":"Nassau St & Navy St","availableDocks":5,"totalDocks":19,"latitude":40.69839895,"longitude":-73.98068914,"statusValue":"In Service","statusKey":1,"availableBikes":12,"stAddress1":"Nassau St & Navy St","stAddress2":"","city":"","postalCode":"","location":"","altitude":"","testStation":false,"lastCommunicationTime":"2016-01-22 04:32:05 PM","landMark":""},{"id":146,"stationName":"Hudson St & Reade St","availableDocks":30,"totalDocks":39,"latitude":40.71625008,"longitude":-74.0091059,"statusValue":"In Service","statusKey":1,"availableBikes":7,"stAddress1":"Hudson St & Reade St","stAddress2":"","city":"","postalCode":"","location":"","altitude":"","testStation":false,"lastCommunicationTime":"2016-01-22 04:29:37 PM","landMark":""},{"id":147,"stationName":"Greenwich St & Warren St","availableDocks":18,"totalDocks":33,"latitude":40.71542197,"longitude":-74.01121978,"statusValue":"In Service","statusKey":1,"availableBikes":15,"stAddress1":"Greenwich St & Warren St","stAddress2":"","city":"","postalCode":"","location":"","altitude":"","testStation":false,"lastCommunicationTime":"2016-01-22 04:32:05 PM","landMark":""},{"id":150,"stationName":"E 2 St & Avenue C","availableDocks":29,"totalDocks":31,"latitude":40.7208736,"longitude":-73.98085795,"statusValue":"In Service","statusKey":1,"availableBikes":2,"stAddress1":"E 2 St & Avenue C","stAddress2":"","city":"","postalCode":"","location":"","altitude":"","testStation":false,"lastCommunicationTime":"2016-01-22 04:31:04 PM","landMark":""},{"id":151,"stationName":"Cleveland Pl & Spring St","availableDocks":22,"totalDocks":33,"latitude":40.722103786686034,"longitude":-73.99724900722504,"statusValue":"In Service","statusKey":1,"availableBikes":11,"stAddress1":"Cleveland Pl & Spring St","stAddress2":"","city":"","postalCode":"","location":"","altitude":"","testStation":false,"lastCommunicationTime":"2016-01-22 04:29:42 PM","landMark":""},{"id":152,"stationName":"Warren St & Church St","availableDocks":3,"totalDocks":29,"latitude":40.71473993,"longitude":-74.00910627,"statusValue":"In Service","statusKey":1,"availableBikes":26,"stAddress1":"Warren St & Church St","stAddress2":"","city":"","postalCode":"","location":"","altitude":"","testStation":false,"lastCommunicationTime":"2016-01-22 04:30:04 PM","landMark":""},{"id":153,"stationName":"E 40 St & 5 Ave","availableDocks":36,"totalDocks":55,"latitude":40.752062307,"longitude":-73.9816324043,"statusValue":"In Service","statusKey":1,"availableBikes":17,"stAddress1":"E 40 St & 5 Ave","stAddress2":"","city":"","postalCode":"","location":"","altitude":"","testStation":false,"lastCommunicationTime":"2016-01-22 04:31:08 PM","landMark":""},{"id":157,"stationName":"Henry St & Atlantic Ave","availableDocks":16,"totalDocks":23,"latitude":40.69089272,"longitude":-73.99612349,"statusValue":"In Service","statusKey":1,"availableBikes":6,"stAddress1":"Henry St & Atlantic Ave","stAddress2":"","city":"","postalCode":"","location":"","altitude":"","testStation":false,"lastCommunicationTime":"2016-01-22 04:31:42 PM","landMark":""},{"id":160,"stationName":"E 37 St & Lexington Ave","availableDocks":23,"totalDocks":26,"latitude":40.748238,"longitude":-73.978311,"statusValue":"In Service","statusKey":1,"availableBikes":3,"stAddress1":"E 37 St & Lexington Ave","stAddress2":"","city":"","postalCode":"","location":"","altitude":"","testStation":false,"lastCommunicationTime":"2016-01-22 04:31:48 PM","landMark":""},{"id":161,"stationName":"LaGuardia Pl & W 3 St","availableDocks":8,"totalDocks":35,"latitude":40.72917025,"longitude":-73.99810231,"statusValue":"In Service","statusKey":1,"availableBikes":25,"stAddress1":"LaGuardia Pl & W 3 St","stAddress2":"","city":"","postalCode":"","location":"","altitude":"","testStation":false,"lastCommunicationTime":"2016-01-22 04:31:54 PM","landMark":""},{"id":164,"stationName":"E 47 St & 2 Ave","availableDocks":37,"totalDocks":47,"latitude":40.75323098,"longitude":-73.97032517,"statusValue":"In Service","statusKey":1,"availableBikes":10,"stAddress1":"E 47 St & 2 Ave","stAddress2":"","city":"","postalCode":"","location":"","altitude":"","testStation":false,"lastCommunicationTime":"2016-01-22 04:29:29 PM","landMark":""},{"id":167,"stationName":"E 39 St & 3 Ave","availableDocks":22,"totalDocks":45,"latitude":40.7489006,"longitude":-73.97604882,"statusValue":"In Service","statusKey":1,"availableBikes":23,"stAddress1":"E 39 St & 3 Ave","stAddress2":"","city":"","postalCode":"","location":"","altitude":"","testStation":false,"lastCommunicationTime":"2016-01-22 04:30:10 PM","landMark":""},{"id":168,"stationName":"W 18 St & 6 Ave","availableDocks":11,"totalDocks":47,"latitude":40.73971301,"longitude":-73.99456405,"statusValue":"In Service","statusKey":1,"availableBikes":34,"stAddress1":"W 18 St & 6 Ave","stAddress2":"","city":"","postalCode":"","location":"","altitude":"","testStation":false,"lastCommunicationTime":"2016-01-22 04:30:05 PM","landMark":""},{"id":173,"stationName":"Broadway & W 49 St","availableDocks":43,"totalDocks":51,"latitude":40.76068327096592,"longitude":-73.9845272898674,"statusValue":"In Service","statusKey":1,"availableBikes":7,"stAddress1":"Broadway & W 49 St","stAddress2":"","city":"","postalCode":"","location":"","altitude":"","testStation":false,"lastCommunicationTime":"2016-01-22 04:29:12 PM","landMark":""},{"id":174,"stationName":"E 25 St & 1 Ave","availableDocks":21,"totalDocks":30,"latitude":40.7381765,"longitude":-73.97738662,"statusValue":"In Service","statusKey":1,"availableBikes":9,"stAddress1":"E 25 St & 1 Ave","stAddress2":"","city":"","postalCode":"","location":"","altitude":"","testStation":false,"lastCommunicationTime":"2016-01-22 04:31:15 PM","landMark":""},{"id":195,"stationName":"Liberty St & Broadway","availableDocks":25,"totalDocks":45,"latitude":40.70905623,"longitude":-74.01043382,"statusValue":"In Service","statusKey":1,"availableBikes":20,"stAddress1":"Liberty St & Broadway","stAddress2":"","city":"","postalCode":"","location":"","altitude":"","testStation":false,"lastCommunicationTime":"2016-01-22 04:31:32 PM","landMark":""},{"id":212,"stationName":"W 16 St & The High Line","availableDocks":24,"totalDocks":28,"latitude":40.74334935,"longitude":-74.00681753,"statusValue":"In Service","statusKey":1,"availableBikes":3,"stAddress1":"W 16 St & The High Line","stAddress2":"","city":"","postalCode":"","location":"","altitude":"","testStation":false,"lastCommunicationTime":"2016-01-22 04:32:33 PM","landMark":""},{"id":216,"stationName":"Columbia Heights & Cranberry St","availableDocks":13,"totalDocks":23,"latitude":40.70037867,"longitude":-73.99548059,"statusValue":"In Service","statusKey":1,"availableBikes":10,"stAddress1":"Columbia Heights & Cranberry St","stAddress2":"","city":"","postalCode":"","location":"","altitude":"","testStation":false,"lastCommunicationTime":"2016-01-22 04:30:52 PM","landMark":""},{"id":217,"stationName":"Old Fulton St","availableDocks":22,"totalDocks":39,"latitude":40.70277159,"longitude":-73.99383605,"statusValue":"In Service","statusKey":1,"availableBikes":15,"stAddress1":"Old Fulton St","stAddress2":"","city":"","postalCode":"","location":"","altitude":"","testStation":false,"lastCommunicationTime":"2016-01-22 04:30:06 PM","landMark":""},{"id":223,"stationName":"W 13 St & 7 Ave","availableDocks":21,"totalDocks":33,"latitude":40.73781509,"longitude":-73.99994661,"statusValue":"In Service","statusKey":1,"availableBikes":10,"stAddress1":"W 13 St & 7 Ave","stAddress2":"","city":"","postalCode":"","location":"","altitude":"","testStation":false,"lastCommunicationTime":"2016-01-22 04:29:46 PM","landMark":""},{"id":224,"stationName":"Spruce St & Nassau St","availableDocks":27,"totalDocks":31,"latitude":40.71146364,"longitude":-74.00552427,"statusValue":"In Service","statusKey":1,"availableBikes":4,"stAddress1":"Spruce St & Nassau St","stAddress2":"","city":"","postalCode":"","location":"","altitude":"","testStation":false,"lastCommunicationTime":"2016-01-22 04:31:07 PM","landMark":""},{"id":225,"stationName":"W 14 St & The High Line","availableDocks":19,"totalDocks":37,"latitude":40.74195138,"longitude":-74.00803013,"statusValue":"In Service","statusKey":1,"availableBikes":17,"stAddress1":"W 14 St & The High Line","stAddress2":"","city":"","postalCode":"","location":"","altitude":"","testStation":false,"lastCommunicationTime":"2016-01-22 04:31:24 PM","landMark":""},{"id":228,"stationName":"E 48 St & 3 Ave","availableDocks":44,"totalDocks":55,"latitude":40.7546011026,"longitude":-73.971878855,"statusValue":"In Service","statusKey":1,"availableBikes":10,"stAddress1":"E 48 St & 3 Ave","stAddress2":"","city":"","postalCode":"","location":"","altitude":"","testStation":false,"lastCommunicationTime":"2016-01-22 04:29:09 PM","landMark":""},{"id":229,"stationName":"Great Jones St","availableDocks":1,"totalDocks":23,"latitude":40.72743423,"longitude":-73.99379025,"statusValue":"In Service","statusKey":1,"availableBikes":17,"stAddress1":"Great Jones St","stAddress2":"","city":"","postalCode":"","location":"","altitude":"","testStation":false,"lastCommunicationTime":"2016-01-22 04:32:47 PM","landMark":""},{"id":232,"stationName":"Cadman Plaza E & Tillary St","availableDocks":16,"totalDocks":23,"latitude":40.69597683,"longitude":-73.99014892,"statusValue":"In Service","statusKey":1,"availableBikes":7,"stAddress1":"Cadman Plaza E & Tillary St","stAddress2":"","city":"","postalCode":"","location":"","altitude":"","testStation":false,"lastCommunicationTime":"2016-01-22 04:31:35 PM","landMark":""},{"id":233,"stationName":"Cadman Plaza W & Pierrepont St","availableDocks":35,"totalDocks":38,"latitude":40.69475701363877,"longitude":-73.99052739143372,"statusValue":"In Service","statusKey":1,"availableBikes":3,"stAddress1":"Cadman Plaza W & Pierrepont St","stAddress2":"","city":"","postalCode":"","location":"","altitude":"","testStation":false,"lastCommunicationTime":"2016-01-22 04:32:00 PM","landMark":""},{"id":236,"stationName":"St Marks Pl & 2 Ave","availableDocks":33,"totalDocks":39,"latitude":40.7284186,"longitude":-73.98713956,"statusValue":"In Service","statusKey":1,"availableBikes":6,"stAddress1":"St Marks Pl & 2 Ave","stAddress2":"","city":"","postalCode":"","location":"","altitude":"","testStation":false,"lastCommunicationTime":"2016-01-22 04:31:45 PM","landMark":""},{"id":237,"stationName":"E 11 St & 2 Ave","availableDocks":37,"totalDocks":39,"latitude":40.73047309,"longitude":-73.98672378,"statusValue":"In Service","statusKey":1,"availableBikes":1,"stAddress1":"E 11 St & 2 Ave","stAddress2":"","city":"","postalCode":"","location":"","altitude":"","testStation":false,"lastCommunicationTime":"2016-01-22 04:29:10 PM","landMark":""},{"id":238,"stationName":"Bank St & Washington St","availableDocks":14,"totalDocks":31,"latitude":40.7361967,"longitude":-74.00859207,"statusValue":"In Service","statusKey":1,"availableBikes":16,"stAddress1":"Bank St & Washington St","stAddress2":"","city":"","postalCode":"","location":"","altitude":"","testStation":false,"lastCommunicationTime":"2016-01-22 04:32:29 PM","landMark":""},{"id":239,"stationName":"Willoughby St & Fleet St","availableDocks":17,"totalDocks":31,"latitude":40.69196566,"longitude":-73.9813018,"statusValue":"In Service","statusKey":1,"availableBikes":13,"stAddress1":"Willoughby St & Fleet St","stAddress2":"","city":"","postalCode":"","location":"","altitude":"","testStation":false,"lastCommunicationTime":"2016-01-22 04:31:16 PM","landMark":""},{"id":241,"stationName":"DeKalb Ave & S Portland Ave","availableDocks":19,"totalDocks":23,"latitude":40.68981035,"longitude":-73.97493121,"statusValue":"In Service","statusKey":1,"availableBikes":3,"stAddress1":"DeKalb Ave & S Portland Ave","stAddress2":"","city":"","postalCode":"","location":"","altitude":"","testStation":false,"lastCommunicationTime":"2016-01-22 04:32:16 PM","landMark":""},{"id":242,"stationName":"Carlton Ave & Flushing Ave","availableDocks":19,"totalDocks":23,"latitude":40.697787,"longitude":-73.973736,"statusValue":"In Service","statusKey":1,"availableBikes":4,"stAddress1":"Carlton Ave & Flushing Ave","stAddress2":"","city":"","postalCode":"","location":"","altitude":"","testStation":false,"lastCommunicationTime":"2016-01-22 04:32:34 PM","landMark":""},{"id":243,"stationName":"Fulton St & Rockwell Pl","availableDocks":4,"totalDocks":31,"latitude":40.688226,"longitude":-73.979382,"statusValue":"In Service","statusKey":1,"availableBikes":26,"stAddress1":"Fulton St & Rockwell Pl","stAddress2":"","city":"","postalCode":"","location":"","altitude":"","testStation":false,"lastCommunicationTime":"2016-01-22 04:32:28 PM","landMark":""},{"id":244,"stationName":"Willoughby Ave & Hall St","availableDocks":26,"totalDocks":31,"latitude":40.69196035,"longitude":-73.96536851,"statusValue":"In Service","statusKey":1,"availableBikes":5,"stAddress1":"Willoughby Ave & Hall St","stAddress2":"","city":"","postalCode":"","location":"","altitude":"","testStation":false,"lastCommunicationTime":"2016-01-22 04:29:36 PM","landMark":""},{"id":245,"stationName":"Myrtle Ave & St Edwards St","availableDocks":16,"totalDocks":23,"latitude":40.69327018,"longitude":-73.97703874,"statusValue":"In Service","statusKey":1,"availableBikes":7,"stAddress1":"Myrtle Ave & St Edwards St","stAddress2":"","city":"","postalCode":"","location":"","altitude":"","testStation":false,"lastCommunicationTime":"2016-01-22 04:31:56 PM","landMark":""},{"id":247,"stationName":"Perry St & Bleecker St","availableDocks":9,"totalDocks":20,"latitude":40.73535398,"longitude":-74.00483091,"statusValue":"In Service","statusKey":1,"availableBikes":11,"stAddress1":"Perry St & Bleecker St","stAddress2":"","city":"","postalCode":"","location":"","altitude":"","testStation":false,"lastCommunicationTime":"2016-01-22 04:31:53 PM","landMark":""},{"id":248,"stationName":"Laight St & Hudson St","availableDocks":10,"totalDocks":23,"latitude":40.72185379,"longitude":-74.00771779,"statusValue":"In Service","statusKey":1,"availableBikes":12,"stAddress1":"Laight St & Hudson St","stAddress2":"","city":"","postalCode":"","location":"","altitude":"","testStation":false,"lastCommunicationTime":"2016-01-22 04:32:38 PM","landMark":""},{"id":249,"stationName":"Harrison St & Hudson St","availableDocks":2,"totalDocks":27,"latitude":40.71870987,"longitude":-74.0090009,"statusValue":"In Service","statusKey":1,"availableBikes":25,"stAddress1":"Harrison St & Hudson St","stAddress2":"","city":"","postalCode":"","location":"","altitude":"","testStation":false,"lastCommunicationTime":"2016-01-22 04:28:57 PM","landMark":""},{"id":250,"stationName":"Lafayette St & Jersey St","availableDocks":2,"totalDocks":40,"latitude":40.72456089,"longitude":-73.99565293,"statusValue":"In Service","statusKey":1,"availableBikes":35,"stAddress1":"Lafayette St & Jersey St","stAddress2":"","city":"","postalCode":"","location":"","altitude":"","testStation":false,"lastCommunicationTime":"2016-01-22 04:29:11 PM","landMark":""},{"id":251,"stationName":"Mott St & Prince St","availableDocks":23,"totalDocks":27,"latitude":40.72317958,"longitude":-73.99480012,"statusValue":"In Service","statusKey":1,"availableBikes":2,"stAddress1":"Mott St & Prince St","stAddress2":"","city":"","postalCode":"","location":"","altitude":"","testStation":false,"lastCommunicationTime":"2016-01-22 04:32:19 PM","landMark":""},{"id":252,"stationName":"MacDougal St & Washington Sq","availableDocks":31,"totalDocks":33,"latitude":40.73226398,"longitude":-73.99852205,"statusValue":"In Service","statusKey":1,"availableBikes":2,"stAddress1":"MacDougal St & Washington Sq","stAddress2":"","city":"","postalCode":"","location":"","altitude":"","testStation":false,"lastCommunicationTime":"2016-01-22 04:31:38 PM","landMark":""},{"id":253,"stationName":"W 13 St & 5 Ave","availableDocks":39,"totalDocks":55,"latitude":40.73543934,"longitude":-73.99453948,"statusValue":"In Service","statusKey":1,"availableBikes":13,"stAddress1":"W 13 St & 5 Ave","stAddress2":"","city":"","postalCode":"","location":"","altitude":"","testStation":false,"lastCommunicationTime":"2016-01-22 04:30:37 PM","landMark":""},{"id":254,"stationName":"W 11 St & 6 Ave","availableDocks":25,"totalDocks":31,"latitude":40.73532427,"longitude":-73.99800419,"statusValue":"In Service","statusKey":1,"availableBikes":6,"stAddress1":"W 11 St & 6 Ave","stAddress2":"","city":"","postalCode":"","location":"","altitude":"","testStation":false,"lastCommunicationTime":"2016-01-22 04:30:27 PM","landMark":""},{"id":257,"stationName":"Lispenard St & Broadway","availableDocks":4,"totalDocks":39,"latitude":40.71939226,"longitude":-74.00247214,"statusValue":"In Service","statusKey":1,"availableBikes":33,"stAddress1":"Lispenard St & Broadway","stAddress2":"","city":"","postalCode":"","location":"","altitude":"","testStation":false,"lastCommunicationTime":"2016-01-22 04:32:12 PM","landMark":""},{"id":258,"stationName":"DeKalb Ave & Vanderbilt Ave","availableDocks":23,"totalDocks":23,"latitude":40.68940747,"longitude":-73.96885458,"statusValue":"In Service","statusKey":1,"availableBikes":0,"stAddress1":"DeKalb Ave & Vanderbilt Ave","stAddress2":"","city":"","postalCode":"","location":"","altitude":"","testStation":false,"lastCommunicationTime":"2016-01-22 04:32:05 PM","landMark":""},{"id":259,"stationName":"South St & Whitehall St","availableDocks":4,"totalDocks":39,"latitude":40.70122128,"longitude":-74.01234218,"statusValue":"In Service","statusKey":1,"availableBikes":35,"stAddress1":"South St & Whitehall St","stAddress2":"","city":"","postalCode":"","location":"","altitude":"","testStation":false,"lastCommunicationTime":"2016-01-22 04:31:12 PM","landMark":""},{"id":260,"stationName":"Broad St & Bridge St","availableDocks":10,"totalDocks":35,"latitude":40.70365182,"longitude":-74.01167797,"statusValue":"In Service","statusKey":1,"availableBikes":25,"stAddress1":"Broad St & Bridge St","stAddress2":"","city":"","postalCode":"","location":"","altitude":"","testStation":false,"lastCommunicationTime":"2016-01-22 04:30:24 PM","landMark":""},{"id":261,"stationName":"Johnson St & Gold St","availableDocks":14,"totalDocks":27,"latitude":40.69474881,"longitude":-73.98362464,"statusValue":"In Service","statusKey":1,"availableBikes":13,"stAddress1":"Johnson St & Gold St","stAddress2":"","city":"","postalCode":"","location":"","altitude":"","testStation":false,"lastCommunicationTime":"2016-01-22 04:30:52 PM","landMark":""},{"id":262,"stationName":"Washington Park","availableDocks":23,"totalDocks":24,"latitude":40.6917823,"longitude":-73.9737299,"statusValue":"In Service","statusKey":1,"availableBikes":1,"stAddress1":"Washington Park","stAddress2":"","city":"","postalCode":"","location":"","altitude":"","testStation":false,"lastCommunicationTime":"2016-01-22 04:29:34 PM","landMark":""},{"id":263,"stationName":"Elizabeth St & Hester St","availableDocks":31,"totalDocks":31,"latitude":40.71729,"longitude":-73.996375,"statusValue":"In Service","statusKey":1,"availableBikes":0,"stAddress1":"Elizabeth St & Hester St","stAddress2":"","city":"","postalCode":"","location":"","altitude":"","testStation":false,"lastCommunicationTime":"2016-01-22 04:32:42 PM","landMark":""},{"id":264,"stationName":"Maiden Ln & Pearl St","availableDocks":3,"totalDocks":27,"latitude":40.70706456,"longitude":-74.00731853,"statusValue":"In Service","statusKey":1,"availableBikes":24,"stAddress1":"Maiden Ln & Pearl St","stAddress2":"","city":"","postalCode":"","location":"","altitude":"","testStation":false,"lastCommunicationTime":"2016-01-22 04:32:19 PM","landMark":""},{"id":265,"stationName":"Stanton St & Chrystie St","availableDocks":24,"totalDocks":35,"latitude":40.72229346,"longitude":-73.99147535,"statusValue":"In Service","statusKey":1,"availableBikes":10,"stAddress1":"Stanton St & Chrystie St","stAddress2":"","city":"","postalCode":"","location":"","altitude":"","testStation":false,"lastCommunicationTime":"2016-01-22 04:32:27 PM","landMark":""},{"id":266,"stationName":"Avenue D & E 8 St","availableDocks":22,"totalDocks":24,"latitude":40.72368361,"longitude":-73.97574813,"statusValue":"In Service","statusKey":1,"availableBikes":2,"stAddress1":"Avenue D & E 8 St","stAddress2":"","city":"","postalCode":"","location":"","altitude":"","testStation":false,"lastCommunicationTime":"2016-01-22 04:32:24 PM","landMark":""},{"id":267,"stationName":"Broadway & W 36 St","availableDocks":56,"totalDocks":57,"latitude":40.75097711,"longitude":-73.98765428,"statusValue":"In Service","statusKey":1,"availableBikes":1,"stAddress1":"Broadway & W 36 St","stAddress2":"","city":"","postalCode":"","location":"","altitude":"","testStation":false,"lastCommunicationTime":"2016-01-22 04:32:27 PM","landMark":""},{"id":268,"stationName":"Howard St & Centre St","availableDocks":2,"totalDocks":27,"latitude":40.71910537,"longitude":-73.99973337,"statusValue":"In Service","statusKey":1,"availableBikes":25,"stAddress1":"Howard St & Centre St","stAddress2":"","city":"","postalCode":"","location":"","altitude":"","testStation":false,"lastCommunicationTime":"2016-01-22 04:31:05 PM","landMark":""},{"id":270,"stationName":"Adelphi St & Myrtle Ave","availableDocks":17,"totalDocks":23,"latitude":40.69308257,"longitude":-73.97178913,"statusValue":"In Service","statusKey":1,"availableBikes":5,"stAddress1":"Adelphi St & Myrtle Ave","stAddress2":"","city":"","postalCode":"","location":"","altitude":"","testStation":false,"lastCommunicationTime":"2016-01-22 04:29:18 PM","landMark":""},{"id":274,"stationName":"Lafayette Ave & Fort Greene Pl","availableDocks":11,"totalDocks":31,"latitude":40.68691865,"longitude":-73.976682,"statusValue":"In Service","statusKey":1,"availableBikes":20,"stAddress1":"Lafayette Ave & Fort Greene Pl","stAddress2":"","city":"","postalCode":"","location":"","altitude":"","testStation":false,"lastCommunicationTime":"2016-01-22 04:30:25 PM","landMark":""},{"id":275,"stationName":"Washington Ave & Greene Ave","availableDocks":16,"totalDocks":19,"latitude":40.68650065,"longitude":-73.96563307,"statusValue":"In Service","statusKey":1,"availableBikes":3,"stAddress1":"Washington Ave & Greene Ave","stAddress2":"","city":"","postalCode":"","location":"","altitude":"","testStation":false,"lastCommunicationTime":"2016-01-22 04:31:51 PM","landMark":""},{"id":276,"stationName":"Duane St & Greenwich St","availableDocks":2,"totalDocks":25,"latitude":40.71748752,"longitude":-74.0104554,"statusValue":"In Service","statusKey":1,"availableBikes":22,"stAddress1":"Duane St & Greenwich St","stAddress2":"","city":"","postalCode":"","location":"","altitude":"","testStation":false,"lastCommunicationTime":"2016-01-22 04:30:57 PM","landMark":""},{"id":278,"stationName":"Concord St & Bridge St","availableDocks":8,"totalDocks":19,"latitude":40.69766564,"longitude":-73.98476437,"statusValue":"In Service","statusKey":1,"availableBikes":10,"stAddress1":"Concord St & Bridge St","stAddress2":"","city":"","postalCode":"","location":"","altitude":"","testStation":false,"lastCommunicationTime":"2016-01-22 04:31:17 PM","landMark":""},{"id":279,"stationName":"Peck Slip & Front St","availableDocks":13,"totalDocks":36,"latitude":40.707873,"longitude":-74.00167,"statusValue":"In Service","statusKey":1,"availableBikes":23,"stAddress1":"Peck Slip & Front St","stAddress2":"","city":"","postalCode":"","location":"","altitude":"","testStation":false,"lastCommunicationTime":"2016-01-22 04:29:22 PM","landMark":""},{"id":280,"stationName":"E 10 St & 5 Ave","availableDocks":10,"totalDocks":31,"latitude":40.73331967,"longitude":-73.99510132,"statusValue":"In Service","statusKey":1,"availableBikes":20,"stAddress1":"E 10 St & 5 Ave","stAddress2":"","city":"","postalCode":"","location":"","altitude":"","testStation":false,"lastCommunicationTime":"2016-01-22 04:32:37 PM","landMark":""},{"id":281,"stationName":"Grand Army Plaza & Central Park S","availableDocks":33,"totalDocks":59,"latitude":40.7643971,"longitude":-73.97371465,"statusValue":"In Service","statusKey":1,"availableBikes":26,"stAddress1":"Grand Army Plaza & Central Park S","stAddress2":"","city":"","postalCode":"","location":"","altitude":"","testStation":false,"lastCommunicationTime":"2016-01-22 04:29:55 PM","landMark":""},{"id":282,"stationName":"Kent Ave & S 11 St","availableDocks":23,"totalDocks":27,"latitude":40.70827295,"longitude":-73.96834101,"statusValue":"In Service","statusKey":1,"availableBikes":4,"stAddress1":"Kent Ave & S 11 St","stAddress2":"","city":"","postalCode":"","location":"","altitude":"","testStation":false,"lastCommunicationTime":"2016-01-22 04:31:08 PM","landMark":""},{"id":284,"stationName":"Greenwich Ave & 8 Ave","availableDocks":16,"totalDocks":43,"latitude":40.7390169121,"longitude":-74.0026376103,"statusValue":"In Service","statusKey":1,"availableBikes":26,"stAddress1":"Greenwich Ave & 8 Ave","stAddress2":"","city":"","postalCode":"","location":"","altitude":"","testStation":false,"lastCommunicationTime":"2016-01-22 04:31:12 PM","landMark":""},{"id":285,"stationName":"Broadway & E 14 St","availableDocks":36,"totalDocks":47,"latitude":40.73454567,"longitude":-73.99074142,"statusValue":"In Service","statusKey":1,"availableBikes":10,"stAddress1":"Broadway & E 14 St","stAddress2":"","city":"","postalCode":"","location":"","altitude":"","testStation":false,"lastCommunicationTime":"2016-01-22 04:31:31 PM","landMark":""},{"id":289,"stationName":"Monroe St & Classon Ave","availableDocks":13,"totalDocks":19,"latitude":40.6845683,"longitude":-73.95881081,"statusValue":"In Service","statusKey":1,"availableBikes":6,"stAddress1":"Monroe St & Classon Ave","stAddress2":"","city":"","postalCode":"","location":"","altitude":"","testStation":false,"lastCommunicationTime":"2016-01-22 04:30:06 PM","landMark":""},{"id":291,"stationName":"Madison St & Montgomery St","availableDocks":20,"totalDocks":20,"latitude":40.713126,"longitude":-73.984844,"statusValue":"In Service","statusKey":1,"availableBikes":0,"stAddress1":"Madison St & Montgomery St","stAddress2":"","city":"","postalCode":"","location":"","altitude":"","testStation":false,"lastCommunicationTime":"2016-01-22 04:29:15 PM","landMark":""},{"id":293,"stationName":"Lafayette St & E 8 St","availableDocks":42,"totalDocks":55,"latitude":40.73028666,"longitude":-73.9907647,"statusValue":"In Service","statusKey":1,"availableBikes":10,"stAddress1":"Lafayette St & E 8 St","stAddress2":"","city":"","postalCode":"","location":"","altitude":"","testStation":false,"lastCommunicationTime":"2016-01-22 04:32:19 PM","landMark":""},{"id":295,"stationName":"Pike St & E Broadway","availableDocks":24,"totalDocks":24,"latitude":40.71406667,"longitude":-73.99293911,"statusValue":"In Service","statusKey":1,"availableBikes":0,"stAddress1":"Pike St & E Broadway","stAddress2":"","city":"","postalCode":"","location":"","altitude":"","testStation":false,"lastCommunicationTime":"2016-01-22 04:29:05 PM","landMark":""},{"id":296,"stationName":"Division St & Bowery","availableDocks":6,"totalDocks":35,"latitude":40.71413089,"longitude":-73.9970468,"statusValue":"In Service","statusKey":1,"availableBikes":27,"stAddress1":"Division St & Bowery","stAddress2":"","city":"","postalCode":"","location":"","altitude":"","testStation":false,"lastCommunicationTime":"2016-01-22 04:32:10 PM","landMark":""},{"id":297,"stationName":"E 15 St & 3 Ave","availableDocks":21,"totalDocks":27,"latitude":40.734232,"longitude":-73.986923,"statusValue":"In Service","statusKey":1,"availableBikes":6,"stAddress1":"E 15 St & 3 Ave","stAddress2":"","city":"","postalCode":"","location":"","altitude":"","testStation":false,"lastCommunicationTime":"2016-01-22 04:29:03 PM","landMark":""},{"id":298,"stationName":"3 Ave & Schermerhorn St","availableDocks":14,"totalDocks":35,"latitude":40.68683208,"longitude":-73.9796772,"statusValue":"In Service","statusKey":1,"availableBikes":21,"stAddress1":"3 Ave & Schermerhorn St","stAddress2":"","city":"","postalCode":"","location":"","altitude":"","testStation":false,"lastCommunicationTime":"2016-01-22 04:31:19 PM","landMark":""},{"id":300,"stationName":"Shevchenko Pl & E 7 St","availableDocks":42,"totalDocks":55,"latitude":40.728145,"longitude":-73.990214,"statusValue":"In Service","statusKey":1,"availableBikes":11,"stAddress1":"Shevchenko Pl & E 7 St","stAddress2":"","city":"","postalCode":"","location":"","altitude":"","testStation":false,"lastCommunicationTime":"2016-01-22 04:32:46 PM","landMark":""},{"id":301,"stationName":"E 2 St & Avenue B","availableDocks":35,"totalDocks":37,"latitude":40.72217444,"longitude":-73.98368779,"statusValue":"In Service","statusKey":1,"availableBikes":1,"stAddress1":"E 2 St & Avenue B","stAddress2":"","city":"","postalCode":"","location":"","altitude":"","testStation":false,"lastCommunicationTime":"2016-01-22 04:31:27 PM","landMark":""},{"id":302,"stationName":"Avenue D & E 3 St","availableDocks":23,"totalDocks":23,"latitude":40.72082834,"longitude":-73.97793172,"statusValue":"In Service","statusKey":1,"availableBikes":0,"stAddress1":"Avenue D & E 3 St","stAddress2":"","city":"","postalCode":"","location":"","altitude":"","testStation":false,"lastCommunicationTime":"2016-01-22 04:30:29 PM","landMark":""},{"id":303,"stationName":"Mercer St & Spring St","availableDocks":10,"totalDocks":31,"latitude":40.72362738,"longitude":-73.99949601,"statusValue":"In Service","statusKey":1,"availableBikes":21,"stAddress1":"Mercer St & Spring St","stAddress2":"","city":"","postalCode":"","location":"","altitude":"","testStation":false,"lastCommunicationTime":"2016-01-22 04:32:02 PM","landMark":""},{"id":304,"stationName":"Broadway & Battery Pl","availableDocks":7,"totalDocks":36,"latitude":40.70463334,"longitude":-74.01361706,"statusValue":"In Service","statusKey":1,"availableBikes":27,"stAddress1":"Broadway & Battery Pl","stAddress2":"","city":"","postalCode":"","location":"","altitude":"","testStation":false,"lastCommunicationTime":"2016-01-22 04:31:14 PM","landMark":""},{"id":305,"stationName":"E 58 St & 3 Ave","availableDocks":13,"totalDocks":33,"latitude":40.76095756,"longitude":-73.96724467,"statusValue":"In Service","statusKey":1,"availableBikes":19,"stAddress1":"E 58 St & 3 Ave","stAddress2":"","city":"","postalCode":"","location":"","altitude":"","testStation":false,"lastCommunicationTime":"2016-01-22 04:32:28 PM","landMark":""},{"id":306,"stationName":"Cliff St & Fulton St","availableDocks":10,"totalDocks":37,"latitude":40.70823502,"longitude":-74.00530063,"statusValue":"In Service","statusKey":1,"availableBikes":25,"stAddress1":"Cliff St & Fulton St","stAddress2":"","city":"","postalCode":"","location":"","altitude":"","testStation":false,"lastCommunicationTime":"2016-01-22 04:30:46 PM","landMark":""},{"id":307,"stationName":"Canal St & Rutgers St","availableDocks":27,"totalDocks":29,"latitude":40.71427487,"longitude":-73.98990025,"statusValue":"In Service","statusKey":1,"availableBikes":2,"stAddress1":"Canal St & Rutgers St","stAddress2":"","city":"","postalCode":"","location":"","altitude":"","testStation":false,"lastCommunicationTime":"2016-01-22 04:31:44 PM","landMark":""},{"id":308,"stationName":"St James Pl & Oliver St","availableDocks":21,"totalDocks":27,"latitude":40.71307916,"longitude":-73.99851193,"statusValue":"In Service","statusKey":1,"availableBikes":3,"stAddress1":"St James Pl & Oliver St","stAddress2":"","city":"","postalCode":"","location":"","altitude":"","testStation":false,"lastCommunicationTime":"2016-01-22 04:31:38 PM","landMark":""},{"id":309,"stationName":"Murray St & West St","availableDocks":4,"totalDocks":41,"latitude":40.7149787,"longitude":-74.013012,"statusValue":"In Service","statusKey":1,"availableBikes":37,"stAddress1":"Murray St & West St","stAddress2":"","city":"","postalCode":"","location":"","altitude":"","testStation":false,"lastCommunicationTime":"2016-01-22 04:30:43 PM","landMark":""},{"id":310,"stationName":"State St & Smith St","availableDocks":22,"totalDocks":36,"latitude":40.68926942,"longitude":-73.98912867,"statusValue":"In Service","statusKey":1,"availableBikes":12,"stAddress1":"State St & Smith St","stAddress2":"","city":"","postalCode":"","location":"","altitude":"","testStation":false,"lastCommunicationTime":"2016-01-22 04:29:51 PM","landMark":""},{"id":311,"stationName":"Norfolk St & Broome St","availableDocks":26,"totalDocks":31,"latitude":40.7172274,"longitude":-73.98802084,"statusValue":"In Service","statusKey":1,"availableBikes":5,"stAddress1":"Norfolk St & Broome St","stAddress2":"","city":"","postalCode":"","location":"","altitude":"","testStation":false,"lastCommunicationTime":"2016-01-22 04:30:04 PM","landMark":""},{"id":312,"stationName":"Allen St & E Houston St","availableDocks":26,"totalDocks":31,"latitude":40.722055,"longitude":-73.989111,"statusValue":"In Service","statusKey":1,"availableBikes":5,"stAddress1":"Allen St & E Houston St","stAddress2":"","city":"","postalCode":"","location":"","altitude":"","testStation":false,"lastCommunicationTime":"2016-01-22 04:29:33 PM","landMark":""},{"id":313,"stationName":"Washington Ave & Park Ave","availableDocks":1,"totalDocks":23,"latitude":40.69610226,"longitude":-73.96751037,"statusValue":"In Service","statusKey":1,"availableBikes":22,"stAddress1":"Washington Ave & Park Ave","stAddress2":"","city":"","postalCode":"","location":"","altitude":"","testStation":false,"lastCommunicationTime":"2016-01-22 04:32:20 PM","landMark":""},{"id":314,"stationName":"Cadman Plaza West & Montague St","availableDocks":20,"totalDocks":39,"latitude":40.69383,"longitude":-73.990539,"statusValue":"In Service","statusKey":1,"availableBikes":18,"stAddress1":"Cadman Plaza West & Montague St","stAddress2":"","city":"","postalCode":"","location":"","altitude":"","testStation":false,"lastCommunicationTime":"2016-01-22 04:30:34 PM","landMark":""},{"id":315,"stationName":"South St & Gouverneur Ln","availableDocks":6,"totalDocks":29,"latitude":40.70355377,"longitude":-74.00670227,"statusValue":"In Service","statusKey":1,"availableBikes":23,"stAddress1":"South St & Gouverneur Ln","stAddress2":"","city":"","postalCode":"","location":"","altitude":"","testStation":false,"lastCommunicationTime":"2016-01-22 04:31:34 PM","landMark":""},{"id":316,"stationName":"Fulton St & William St","availableDocks":10,"totalDocks":43,"latitude":40.70955958,"longitude":-74.00653609,"statusValue":"In Service","statusKey":1,"availableBikes":32,"stAddress1":"Fulton St & William St","stAddress2":"","city":"","postalCode":"","location":"","altitude":"","testStation":false,"lastCommunicationTime":"2016-01-22 04:28:58 PM","landMark":""},{"id":317,"stationName":"E 6 St & Avenue B","availableDocks":17,"totalDocks":27,"latitude":40.72453734,"longitude":-73.98185424,"statusValue":"In Service","statusKey":1,"availableBikes":10,"stAddress1":"E 6 St & Avenue B","stAddress2":"","city":"","postalCode":"","location":"","altitude":"","testStation":false,"lastCommunicationTime":"2016-01-22 04:32:47 PM","landMark":""},{"id":319,"stationName":"Fulton St & Broadway","availableDocks":9,"totalDocks":33,"latitude":40.711066,"longitude":-74.009447,"statusValue":"In Service","statusKey":1,"availableBikes":23,"stAddress1":"Fulton St & Broadway","stAddress2":"","city":"","postalCode":"","location":"","altitude":"","testStation":false,"lastCommunicationTime":"2016-01-22 04:30:28 PM","landMark":""},{"id":320,"stationName":"Leonard St & Church St","availableDocks":4,"totalDocks":39,"latitude":40.717571,"longitude":-74.005549,"statusValue":"In Service","statusKey":1,"availableBikes":35,"stAddress1":"Leonard St & Church St","stAddress2":"","city":"","postalCode":"","location":"","altitude":"","testStation":false,"lastCommunicationTime":"2016-01-22 04:31:31 PM","landMark":""},{"id":321,"stationName":"Cadman Plaza E & Red Cross Pl","availableDocks":9,"totalDocks":27,"latitude":40.69991755,"longitude":-73.98971773,"statusValue":"In Service","statusKey":1,"availableBikes":17,"stAddress1":"Cadman Plaza E & Red Cross Pl","stAddress2":"","city":"","postalCode":"","location":"","altitude":"","testStation":false,"lastCommunicationTime":"2016-01-22 04:29:44 PM","landMark":""},{"id":322,"stationName":"Clinton St & Tillary St","availableDocks":23,"totalDocks":31,"latitude":40.696192,"longitude":-73.991218,"statusValue":"In Service","statusKey":1,"availableBikes":7,"stAddress1":"Clinton St & Tillary St","stAddress2":"","city":"","postalCode":"","location":"","altitude":"","testStation":false,"lastCommunicationTime":"2016-01-22 04:31:22 PM","landMark":""},{"id":323,"stationName":"Lawrence St & Willoughby St","availableDocks":3,"totalDocks":39,"latitude":40.69236178,"longitude":-73.98631746,"statusValue":"In Service","statusKey":1,"availableBikes":35,"stAddress1":"Lawrence St & Willoughby St","stAddress2":"","city":"","postalCode":"","location":"","altitude":"","testStation":false,"lastCommunicationTime":"2016-01-22 04:29:08 PM","landMark":""},{"id":324,"stationName":"DeKalb Ave & Hudson Ave","availableDocks":19,"totalDocks":51,"latitude":40.689888,"longitude":-73.981013,"statusValue":"In Service","statusKey":1,"availableBikes":32,"stAddress1":"DeKalb Ave & Hudson Ave","stAddress2":"","city":"","postalCode":"","location":"","altitude":"","testStation":false,"lastCommunicationTime":"2016-01-22 04:32:22 PM","landMark":""},{"id":325,"stationName":"E 19 St & 3 Ave","availableDocks":34,"totalDocks":35,"latitude":40.73624527,"longitude":-73.98473765,"statusValue":"In Service","statusKey":1,"availableBikes":1,"stAddress1":"E 19 St & 3 Ave","stAddress2":"","city":"","postalCode":"","location":"","altitude":"","testStation":false,"lastCommunicationTime":"2016-01-22 04:32:00 PM","landMark":""},{"id":326,"stationName":"E 11 St & 1 Ave","availableDocks":27,"totalDocks":27,"latitude":40.72953837,"longitude":-73.98426726,"statusValue":"In Service","statusKey":1,"availableBikes":0,"stAddress1":"E 11 St & 1 Ave","stAddress2":"","city":"","postalCode":"","location":"","altitude":"","testStation":false,"lastCommunicationTime":"2016-01-22 04:29:08 PM","landMark":""},{"id":327,"stationName":"Vesey Pl & River Terrace","availableDocks":20,"totalDocks":39,"latitude":40.7153379,"longitude":-74.01658354,"statusValue":"In Service","statusKey":1,"availableBikes":18,"stAddress1":"Vesey Pl & River Terrace","stAddress2":"","city":"","postalCode":"","location":"","altitude":"","testStation":false,"lastCommunicationTime":"2016-01-22 04:32:29 PM","landMark":""},{"id":328,"stationName":"Watts St & Greenwich St","availableDocks":9,"totalDocks":23,"latitude":40.72405549,"longitude":-74.00965965,"statusValue":"In Service","statusKey":1,"availableBikes":13,"stAddress1":"Watts St & Greenwich St","stAddress2":"","city":"","postalCode":"","location":"","altitude":"","testStation":false,"lastCommunicationTime":"2016-01-22 04:30:53 PM","landMark":""},{"id":329,"stationName":"Greenwich St & N Moore St","availableDocks":20,"totalDocks":31,"latitude":40.72043411,"longitude":-74.01020609,"statusValue":"In Service","statusKey":1,"availableBikes":11,"stAddress1":"Greenwich St & N Moore St","stAddress2":"","city":"","postalCode":"","location":"","altitude":"","testStation":false,"lastCommunicationTime":"2016-01-22 04:30:58 PM","landMark":""},{"id":330,"stationName":"Reade St & Broadway","availableDocks":21,"totalDocks":39,"latitude":40.71450451,"longitude":-74.00562789,"statusValue":"In Service","statusKey":1,"availableBikes":18,"stAddress1":"Reade St & Broadway","stAddress2":"","city":"","postalCode":"","location":"","altitude":"","testStation":false,"lastCommunicationTime":"2016-01-22 04:32:26 PM","landMark":""},{"id":331,"stationName":"Pike St & Monroe St","availableDocks":26,"totalDocks":27,"latitude":40.71173107,"longitude":-73.99193043,"statusValue":"In Service","statusKey":1,"availableBikes":1,"stAddress1":"Pike St & Monroe St","stAddress2":"","city":"","postalCode":"","location":"","altitude":"","testStation":false,"lastCommunicationTime":"2016-01-22 04:28:54 PM","landMark":""},{"id":332,"stationName":"Cherry St","availableDocks":18,"totalDocks":24,"latitude":40.71219906,"longitude":-73.97948148,"statusValue":"In Service","statusKey":1,"availableBikes":6,"stAddress1":"Cherry St","stAddress2":"","city":"","postalCode":"","location":"","altitude":"","testStation":false,"lastCommunicationTime":"2016-01-22 04:30:14 PM","landMark":""},{"id":334,"stationName":"W 20 St & 7 Ave","availableDocks":14,"totalDocks":31,"latitude":40.74238787,"longitude":-73.99726235,"statusValue":"In Service","statusKey":1,"availableBikes":17,"stAddress1":"W 20 St & 7 Ave","stAddress2":"","city":"","postalCode":"","location":"","altitude":"","testStation":false,"lastCommunicationTime":"2016-01-22 04:29:01 PM","landMark":""},{"id":335,"stationName":"Washington Pl & Broadway","availableDocks":12,"totalDocks":27,"latitude":40.72903917,"longitude":-73.99404649,"statusValue":"In Service","statusKey":1,"availableBikes":14,"stAddress1":"Washington Pl & Broadway","stAddress2":"","city":"","postalCode":"","location":"","altitude":"","testStation":false,"lastCommunicationTime":"2016-01-22 04:32:27 PM","landMark":""},{"id":336,"stationName":"Sullivan St & Washington Sq","availableDocks":19,"totalDocks":36,"latitude":40.73047747,"longitude":-73.99906065,"statusValue":"In Service","statusKey":1,"availableBikes":17,"stAddress1":"Sullivan St & Washington Sq","stAddress2":"","city":"","postalCode":"","location":"","altitude":"","testStation":false,"lastCommunicationTime":"2016-01-22 04:31:14 PM","landMark":""},{"id":337,"stationName":"Old Slip & Front St","availableDocks":17,"totalDocks":37,"latitude":40.7037992,"longitude":-74.00838676,"statusValue":"In Service","statusKey":1,"availableBikes":20,"stAddress1":"Old Slip & Front St","stAddress2":"","city":"","postalCode":"","location":"","altitude":"","testStation":false,"lastCommunicationTime":"2016-01-22 04:31:52 PM","landMark":""},{"id":339,"stationName":"Avenue D & E 12 St","availableDocks":23,"totalDocks":24,"latitude":40.72580614,"longitude":-73.97422494,"statusValue":"In Service","statusKey":1,"availableBikes":1,"stAddress1":"Avenue D & E 12 St","stAddress2":"","city":"","postalCode":"","location":"","altitude":"","testStation":false,"lastCommunicationTime":"2016-01-22 04:31:27 PM","landMark":""},{"id":340,"stationName":"Madison St & Clinton St","availableDocks":27,"totalDocks":27,"latitude":40.71269042,"longitude":-73.98776323,"statusValue":"In Service","statusKey":1,"availableBikes":0,"stAddress1":"Madison St & Clinton St","stAddress2":"","city":"","postalCode":"","location":"","altitude":"","testStation":false,"lastCommunicationTime":"2016-01-22 04:30:48 PM","landMark":""},{"id":341,"stationName":"Stanton St & Mangin St","availableDocks":19,"totalDocks":19,"latitude":40.71782143,"longitude":-73.97628939,"statusValue":"In Service","statusKey":1,"availableBikes":0,"stAddress1":"Stanton St & Mangin St","stAddress2":"","city":"","postalCode":"","location":"","altitude":"","testStation":false,"lastCommunicationTime":"2016-01-22 04:31:15 PM","landMark":""},{"id":342,"stationName":"Columbia St & Rivington St","availableDocks":29,"totalDocks":29,"latitude":40.71739973,"longitude":-73.98016555,"statusValue":"In Service","statusKey":1,"availableBikes":0,"stAddress1":"Columbia St & Rivington St","stAddress2":"","city":"","postalCode":"","location":"","altitude":"","testStation":false,"lastCommunicationTime":"2016-01-22 04:32:30 PM","landMark":""},{"id":343,"stationName":"Clinton Ave & Flushing Ave","availableDocks":0,"totalDocks":23,"latitude":40.69794,"longitude":-73.96986848,"statusValue":"In Service","statusKey":1,"availableBikes":23,"stAddress1":"Clinton Ave & Flushing Ave","stAddress2":"","city":"","postalCode":"","location":"","altitude":"","testStation":false,"lastCommunicationTime":"2016-01-22 04:29:40 PM","landMark":""},{"id":344,"stationName":"Monroe St & Bedford Ave","availableDocks":13,"totalDocks":23,"latitude":40.6851443,"longitude":-73.95380904,"statusValue":"In Service","statusKey":1,"availableBikes":10,"stAddress1":"Monroe St & Bedford Ave","stAddress2":"","city":"","postalCode":"","location":"","altitude":"","testStation":false,"lastCommunicationTime":"2016-01-22 04:30:02 PM","landMark":""},{"id":345,"stationName":"W 13 St & 6 Ave","availableDocks":17,"totalDocks":35,"latitude":40.73649403,"longitude":-73.99704374,"statusValue":"In Service","statusKey":1,"availableBikes":18,"stAddress1":"W 13 St & 6 Ave","stAddress2":"","city":"","postalCode":"","location":"","altitude":"","testStation":false,"lastCommunicationTime":"2016-01-22 04:30:12 PM","landMark":""},{"id":346,"stationName":"Bank St & Hudson St","availableDocks":25,"totalDocks":27,"latitude":40.73652889,"longitude":-74.00618026,"statusValue":"In Service","statusKey":1,"availableBikes":2,"stAddress1":"Bank St & Hudson St","stAddress2":"","city":"","postalCode":"","location":"","altitude":"","testStation":false,"lastCommunicationTime":"2016-01-22 04:30:15 PM","landMark":""},{"id":347,"stationName":"Greenwich St & W Houston St","availableDocks":12,"totalDocks":35,"latitude":40.728846,"longitude":-74.008591,"statusValue":"In Service","statusKey":1,"availableBikes":22,"stAddress1":"Greenwich St & W Houston St","stAddress2":"","city":"","postalCode":"","location":"","altitude":"","testStation":false,"lastCommunicationTime":"2016-01-22 04:31:26 PM","landMark":""},{"id":348,"stationName":"W Broadway & Spring St","availableDocks":12,"totalDocks":42,"latitude":40.72490985,"longitude":-74.00154702,"statusValue":"In Service","statusKey":1,"availableBikes":30,"stAddress1":"W Broadway & Spring St","stAddress2":"","city":"","postalCode":"","location":"","altitude":"","testStation":false,"lastCommunicationTime":"2016-01-22 04:31:54 PM","landMark":""},{"id":350,"stationName":"Clinton St & Grand St","availableDocks":27,"totalDocks":28,"latitude":40.71559509,"longitude":-73.9870295,"statusValue":"In Service","statusKey":1,"availableBikes":1,"stAddress1":"Clinton St & Grand St","stAddress2":"","city":"","postalCode":"","location":"","altitude":"","testStation":false,"lastCommunicationTime":"2016-01-22 04:31:55 PM","landMark":""},{"id":351,"stationName":"Front St & Maiden Ln","availableDocks":7,"totalDocks":39,"latitude":40.70530954,"longitude":-74.00612572,"statusValue":"In Service","statusKey":1,"availableBikes":29,"stAddress1":"Front St & Maiden Ln","stAddress2":"","city":"","postalCode":"","location":"","altitude":"","testStation":false,"lastCommunicationTime":"2016-01-22 04:32:41 PM","landMark":""},{"id":352,"stationName":"W 56 St & 6 Ave","availableDocks":6,"totalDocks":36,"latitude":40.76340613,"longitude":-73.97722479,"statusValue":"In Service","statusKey":1,"availableBikes":30,"stAddress1":"W 56 St & 6 Ave","stAddress2":"","city":"","postalCode":"","location":"","altitude":"","testStation":false,"lastCommunicationTime":"2016-01-22 04:32:23 PM","landMark":""},{"id":353,"stationName":"S Portland Ave & Hanson Pl","availableDocks":13,"totalDocks":27,"latitude":40.68539567,"longitude":-73.97431458,"statusValue":"In Service","statusKey":1,"availableBikes":14,"stAddress1":"S Portland Ave & Hanson Pl","stAddress2":"","city":"","postalCode":"","location":"","altitude":"","testStation":false,"lastCommunicationTime":"2016-01-22 04:31:33 PM","landMark":""},{"id":354,"stationName":"Emerson Pl & Myrtle Ave","availableDocks":7,"totalDocks":23,"latitude":40.69363137,"longitude":-73.96223558,"statusValue":"In Service","statusKey":1,"availableBikes":16,"stAddress1":"Emerson Pl & Myrtle Ave","stAddress2":"","city":"","postalCode":"","location":"","altitude":"","testStation":false,"lastCommunicationTime":"2016-01-22 04:29:15 PM","landMark":""},{"id":355,"stationName":"Bayard St & Baxter St","availableDocks":37,"totalDocks":43,"latitude":40.71602118,"longitude":-73.99974372,"statusValue":"In Service","statusKey":1,"availableBikes":6,"stAddress1":"Bayard St & Baxter St","stAddress2":"","city":"","postalCode":"","location":"","altitude":"","testStation":false,"lastCommunicationTime":"2016-01-22 04:31:43 PM","landMark":""},{"id":356,"stationName":"Bialystoker Pl & Delancey St","availableDocks":23,"totalDocks":23,"latitude":40.71622644,"longitude":-73.98261206,"statusValue":"In Service","statusKey":1,"availableBikes":0,"stAddress1":"Bialystoker Pl & Delancey St","stAddress2":"","city":"","postalCode":"","location":"","altitude":"","testStation":false,"lastCommunicationTime":"2016-01-22 04:31:57 PM","landMark":""},{"id":357,"stationName":"E 11 St & Broadway","availableDocks":23,"totalDocks":27,"latitude":40.73261787,"longitude":-73.99158043,"statusValue":"In Service","statusKey":1,"availableBikes":4,"stAddress1":"E 11 St & Broadway","stAddress2":"","city":"","postalCode":"","location":"","altitude":"","testStation":false,"lastCommunicationTime":"2016-01-22 04:29:39 PM","landMark":""},{"id":358,"stationName":"Christopher St & Greenwich St","availableDocks":32,"totalDocks":36,"latitude":40.73291553,"longitude":-74.00711384,"statusValue":"In Service","statusKey":1,"availableBikes":4,"stAddress1":"Christopher St & Greenwich St","stAddress2":"","city":"","postalCode":"","location":"","altitude":"","testStation":false,"lastCommunicationTime":"2016-01-22 04:32:48 PM","landMark":""},{"id":359,"stationName":"E 47 St & Park Ave","availableDocks":30,"totalDocks":55,"latitude":40.75510267,"longitude":-73.97498696,"statusValue":"In Service","statusKey":1,"availableBikes":24,"stAddress1":"E 47 St & Park Ave","stAddress2":"","city":"","postalCode":"","location":"","altitude":"","testStation":false,"lastCommunicationTime":"2016-01-22 04:32:40 PM","landMark":""},{"id":360,"stationName":"William St & Pine St","availableDocks":30,"totalDocks":39,"latitude":40.70717936,"longitude":-74.00887308,"statusValue":"In Service","statusKey":1,"availableBikes":9,"stAddress1":"William St & Pine St","stAddress2":"","city":"","postalCode":"","location":"","altitude":"","testStation":false,"lastCommunicationTime":"2016-01-22 04:31:54 PM","landMark":""},{"id":361,"stationName":"Allen St & Hester St","availableDocks":41,"totalDocks":43,"latitude":40.71605866,"longitude":-73.99190759,"statusValue":"In Service","statusKey":1,"availableBikes":2,"stAddress1":"Allen St & Hester St","stAddress2":"","city":"","postalCode":"","location":"","altitude":"","testStation":false,"lastCommunicationTime":"2016-01-22 04:29:53 PM","landMark":""},{"id":362,"stationName":"Broadway & W 37 St","availableDocks":55,"totalDocks":57,"latitude":40.75172632,"longitude":-73.98753523,"statusValue":"In Service","statusKey":1,"availableBikes":2,"stAddress1":"Broadway & W 37 St","stAddress2":"","city":"","postalCode":"","location":"","altitude":"","testStation":false,"lastCommunicationTime":"2016-01-22 04:30:17 PM","landMark":""},{"id":363,"stationName":"West Thames St","availableDocks":46,"totalDocks":49,"latitude":40.70834698,"longitude":-74.01713445,"statusValue":"In Service","statusKey":1,"availableBikes":3,"stAddress1":"West Thames St","stAddress2":"","city":"","postalCode":"","location":"","altitude":"","testStation":false,"lastCommunicationTime":"2016-01-22 04:30:54 PM","landMark":""},{"id":364,"stationName":"Lafayette Ave & Classon Ave","availableDocks":17,"totalDocks":27,"latitude":40.68900443,"longitude":-73.96023854,"statusValue":"In Service","statusKey":1,"availableBikes":9,"stAddress1":"Lafayette Ave & Classon Ave","stAddress2":"","city":"","postalCode":"","location":"","altitude":"","testStation":false,"lastCommunicationTime":"2016-01-22 04:29:43 PM","landMark":""},{"id":365,"stationName":"Fulton St & Grand Ave","availableDocks":20,"totalDocks":31,"latitude":40.68223166,"longitude":-73.9614583,"statusValue":"In Service","statusKey":1,"availableBikes":11,"stAddress1":"Fulton St & Grand Ave","stAddress2":"","city":"","postalCode":"","location":"","altitude":"","testStation":false,"lastCommunicationTime":"2016-01-22 04:32:04 PM","landMark":""},{"id":366,"stationName":"Clinton Ave & Myrtle Ave","availableDocks":21,"totalDocks":33,"latitude":40.693261,"longitude":-73.968896,"statusValue":"In Service","statusKey":1,"availableBikes":11,"stAddress1":"Clinton Ave & Myrtle Ave","stAddress2":"","city":"","postalCode":"","location":"","altitude":"","testStation":false,"lastCommunicationTime":"2016-01-22 04:30:04 PM","landMark":""},{"id":367,"stationName":"E 53 St & Lexington Ave","availableDocks":11,"totalDocks":34,"latitude":40.75828065,"longitude":-73.97069431,"statusValue":"In Service","statusKey":1,"availableBikes":22,"stAddress1":"E 53 St & Lexington Ave","stAddress2":"","city":"","postalCode":"","location":"","altitude":"","testStation":false,"lastCommunicationTime":"2016-01-22 04:31:29 PM","landMark":""},{"id":368,"stationName":"Carmine St & 6 Ave","availableDocks":13,"totalDocks":39,"latitude":40.73038599,"longitude":-74.00214988,"statusValue":"In Service","statusKey":1,"availableBikes":26,"stAddress1":"Carmine St & 6 Ave","stAddress2":"","city":"","postalCode":"","location":"","altitude":"","testStation":false,"lastCommunicationTime":"2016-01-22 04:28:52 PM","landMark":""},{"id":369,"stationName":"Washington Pl & 6 Ave","availableDocks":34,"totalDocks":35,"latitude":40.73224119,"longitude":-74.00026394,"statusValue":"In Service","statusKey":1,"availableBikes":1,"stAddress1":"Washington Pl & 6 Ave","stAddress2":"","city":"","postalCode":"","location":"","altitude":"","testStation":false,"lastCommunicationTime":"2016-01-22 04:30:35 PM","landMark":""},{"id":372,"stationName":"Franklin Ave & Myrtle Ave","availableDocks":14,"totalDocks":27,"latitude":40.694528,"longitude":-73.958089,"statusValue":"In Service","statusKey":1,"availableBikes":13,"stAddress1":"Franklin Ave & Myrtle Ave","stAddress2":"","city":"","postalCode":"","location":"","altitude":"","testStation":false,"lastCommunicationTime":"2016-01-22 04:30:56 PM","landMark":""},{"id":373,"stationName":"Willoughby Ave & Walworth St","availableDocks":3,"totalDocks":19,"latitude":40.69331716,"longitude":-73.95381995,"statusValue":"In Service","statusKey":1,"availableBikes":16,"stAddress1":"Willoughby Ave & Walworth St","stAddress2":"","city":"","postalCode":"","location":"","altitude":"","testStation":false,"lastCommunicationTime":"2016-01-22 04:30:38 PM","landMark":""},{"id":375,"stationName":"Mercer St & Bleecker St","availableDocks":17,"totalDocks":30,"latitude":40.72679454,"longitude":-73.99695094,"statusValue":"In Service","statusKey":1,"availableBikes":12,"stAddress1":"Mercer St & Bleecker St","stAddress2":"","city":"","postalCode":"","location":"","altitude":"","testStation":false,"lastCommunicationTime":"2016-01-22 04:29:43 PM","landMark":""},{"id":376,"stationName":"John St & William St","availableDocks":10,"totalDocks":43,"latitude":40.70862144,"longitude":-74.00722156,"statusValue":"In Service","statusKey":1,"availableBikes":32,"stAddress1":"John St & William St","stAddress2":"","city":"","postalCode":"","location":"","altitude":"","testStation":false,"lastCommunicationTime":"2016-01-22 04:29:16 PM","landMark":""},{"id":377,"stationName":"6 Ave & Canal St","availableDocks":5,"totalDocks":47,"latitude":40.72243797,"longitude":-74.00566443,"statusValue":"In Service","statusKey":1,"availableBikes":42,"stAddress1":"6 Ave & Canal St","stAddress2":"","city":"","postalCode":"","location":"","altitude":"","testStation":false,"lastCommunicationTime":"2016-01-22 04:31:38 PM","landMark":""},{"id":379,"stationName":"W 31 St & 7 Ave","availableDocks":0,"totalDocks":42,"latitude":40.749156,"longitude":-73.9916,"statusValue":"In Service","statusKey":1,"availableBikes":39,"stAddress1":"W 31 St & 7 Ave","stAddress2":"","city":"","postalCode":"","location":"","altitude":"","testStation":false,"lastCommunicationTime":"2016-01-22 04:30:16 PM","landMark":""},{"id":380,"stationName":"W 4 St & 7 Ave S","availableDocks":6,"totalDocks":39,"latitude":40.73401143,"longitude":-74.00293877,"statusValue":"In Service","statusKey":1,"availableBikes":33,"stAddress1":"W 4 St & 7 Ave S","stAddress2":"","city":"","postalCode":"","location":"","altitude":"","testStation":false,"lastCommunicationTime":"2016-01-22 04:30:37 PM","landMark":""},{"id":382,"stationName":"University Pl & E 14 St","availableDocks":0,"totalDocks":36,"latitude":40.73492695,"longitude":-73.99200509,"statusValue":"In Service","statusKey":1,"availableBikes":35,"stAddress1":"University Pl & E 14 St","stAddress2":"","city":"","postalCode":"","location":"","altitude":"","testStation":false,"lastCommunicationTime":"2016-01-22 04:31:27 PM","landMark":""},{"id":383,"stationName":"Greenwich Ave & Charles St","availableDocks":18,"totalDocks":39,"latitude":40.735238,"longitude":-74.000271,"statusValue":"In Service","statusKey":1,"availableBikes":20,"stAddress1":"Greenwich Ave & Charles St","stAddress2":"","city":"","postalCode":"","location":"","altitude":"","testStation":false,"lastCommunicationTime":"2016-01-22 04:31:42 PM","landMark":""},{"id":384,"stationName":"Fulton St & Washington Ave","availableDocks":20,"totalDocks":31,"latitude":40.683048,"longitude":-73.964915,"statusValue":"In Service","statusKey":1,"availableBikes":11,"stAddress1":"Fulton St & Washington Ave","stAddress2":"","city":"","postalCode":"","location":"","altitude":"","testStation":false,"lastCommunicationTime":"2016-01-22 04:29:06 PM","landMark":""},{"id":385,"stationName":"E 55 St & 2 Ave","availableDocks":24,"totalDocks":29,"latitude":40.75797322,"longitude":-73.96603308,"statusValue":"In Service","statusKey":1,"availableBikes":5,"stAddress1":"E 55 St & 2 Ave","stAddress2":"","city":"","postalCode":"","location":"","altitude":"","testStation":false,"lastCommunicationTime":"2016-01-22 04:32:24 PM","landMark":""},{"id":386,"stationName":"Centre St & Worth St","availableDocks":7,"totalDocks":43,"latitude":40.71494807,"longitude":-74.00234482,"statusValue":"In Service","statusKey":1,"availableBikes":36,"stAddress1":"Centre St & Worth St","stAddress2":"","city":"","postalCode":"","location":"","altitude":"","testStation":false,"lastCommunicationTime":"2016-01-22 04:30:16 PM","landMark":""},{"id":387,"stationName":"Centre St & Chambers St","availableDocks":28,"totalDocks":39,"latitude":40.71273266,"longitude":-74.0046073,"statusValue":"In Service","statusKey":1,"availableBikes":10,"stAddress1":"Centre St & Chambers St","stAddress2":"","city":"","postalCode":"","location":"","altitude":"","testStation":false,"lastCommunicationTime":"2016-01-22 04:30:38 PM","landMark":""},{"id":388,"stationName":"W 26 St & 10 Ave","availableDocks":23,"totalDocks":35,"latitude":40.749717753,"longitude":-74.002950346,"statusValue":"In Service","statusKey":1,"availableBikes":10,"stAddress1":"W 26 St & 10 Ave","stAddress2":"","city":"","postalCode":"","location":"","altitude":"","testStation":false,"lastCommunicationTime":"2016-01-22 04:31:10 PM","landMark":""},{"id":389,"stationName":"Broadway & Berry St","availableDocks":26,"totalDocks":27,"latitude":40.71044554,"longitude":-73.96525063,"statusValue":"In Service","statusKey":1,"availableBikes":1,"stAddress1":"Broadway & Berry St","stAddress2":"","city":"","postalCode":"","location":"","altitude":"","testStation":false,"lastCommunicationTime":"2016-01-22 04:29:12 PM","landMark":""},{"id":390,"stationName":"Duffield St & Willoughby St","availableDocks":6,"totalDocks":31,"latitude":40.69221589,"longitude":-73.9842844,"statusValue":"In Service","statusKey":1,"availableBikes":23,"stAddress1":"Duffield St & Willoughby St","stAddress2":"","city":"","postalCode":"","location":"","altitude":"","testStation":false,"lastCommunicationTime":"2016-01-22 04:31:49 PM","landMark":""},{"id":391,"stationName":"Clark St & Henry St","availableDocks":13,"totalDocks":31,"latitude":40.69760127,"longitude":-73.99344559,"statusValue":"In Service","statusKey":1,"availableBikes":17,"stAddress1":"Clark St & Henry St","stAddress2":"","city":"","postalCode":"","location":"","altitude":"","testStation":false,"lastCommunicationTime":"2016-01-22 04:30:21 PM","landMark":""},{"id":392,"stationName":"Jay St & Tech Pl","availableDocks":17,"totalDocks":32,"latitude":40.695065,"longitude":-73.987167,"statusValue":"In Service","statusKey":1,"availableBikes":15,"stAddress1":"Jay St & Tech Pl","stAddress2":"","city":"","postalCode":"","location":"","altitude":"","testStation":false,"lastCommunicationTime":"2016-01-22 04:29:29 PM","landMark":""},{"id":393,"stationName":"E 5 St & Avenue C","availableDocks":28,"totalDocks":31,"latitude":40.72299208,"longitude":-73.97995466,"statusValue":"In Service","statusKey":1,"availableBikes":3,"stAddress1":"E 5 St & Avenue C","stAddress2":"","city":"","postalCode":"","location":"","altitude":"","testStation":false,"lastCommunicationTime":"2016-01-22 04:30:14 PM","landMark":""},{"id":394,"stationName":"E 9 St & Avenue C","availableDocks":24,"totalDocks":32,"latitude":40.72521311,"longitude":-73.97768752,"statusValue":"In Service","statusKey":1,"availableBikes":8,"stAddress1":"E 9 St & Avenue C","stAddress2":"","city":"","postalCode":"","location":"","altitude":"","testStation":false,"lastCommunicationTime":"2016-01-22 04:30:37 PM","landMark":""},{"id":395,"stationName":"Bond St & Schermerhorn St","availableDocks":9,"totalDocks":30,"latitude":40.68807003,"longitude":-73.98410637,"statusValue":"In Service","statusKey":1,"availableBikes":21,"stAddress1":"Bond St & Schermerhorn St","stAddress2":"","city":"","postalCode":"","location":"","altitude":"","testStation":false,"lastCommunicationTime":"2016-01-22 04:32:47 PM","landMark":""},{"id":396,"stationName":"Lefferts Pl & Franklin Ave","availableDocks":22,"totalDocks":25,"latitude":40.680342423,"longitude":-73.9557689392,"statusValue":"In Service","statusKey":1,"availableBikes":3,"stAddress1":"Lefferts Pl & Franklin Ave","stAddress2":"","city":"","postalCode":"","location":"","altitude":"","testStation":false,"lastCommunicationTime":"2016-01-22 04:29:03 PM","landMark":""},{"id":397,"stationName":"Fulton St & Clermont Ave","availableDocks":27,"totalDocks":27,"latitude":40.68415748,"longitude":-73.96922273,"statusValue":"In Service","statusKey":1,"availableBikes":0,"stAddress1":"Fulton St & Clermont Ave","stAddress2":"","city":"","postalCode":"","location":"","altitude":"","testStation":false,"lastCommunicationTime":"2016-01-22 04:31:10 PM","landMark":""},{"id":398,"stationName":"Atlantic Ave & Furman St","availableDocks":18,"totalDocks":31,"latitude":40.69165183,"longitude":-73.9999786,"statusValue":"In Service","statusKey":1,"availableBikes":13,"stAddress1":"Atlantic Ave & Furman St","stAddress2":"","city":"","postalCode":"","location":"","altitude":"","testStation":false,"lastCommunicationTime":"2016-01-22 04:29:32 PM","landMark":""},{"id":399,"stationName":"Lafayette Ave & St James Pl","availableDocks":14,"totalDocks":27,"latitude":40.68851534,"longitude":-73.9647628,"statusValue":"In Service","statusKey":1,"availableBikes":13,"stAddress1":"Lafayette Ave & St James Pl","stAddress2":"","city":"","postalCode":"","location":"","altitude":"","testStation":false,"lastCommunicationTime":"2016-01-22 04:31:25 PM","landMark":""},{"id":400,"stationName":"Pitt St & Stanton St","availableDocks":10,"totalDocks":15,"latitude":40.71926081,"longitude":-73.98178024,"statusValue":"In Service","statusKey":1,"availableBikes":4,"stAddress1":"Pitt St & Stanton St","stAddress2":"","city":"","postalCode":"","location":"","altitude":"","testStation":false,"lastCommunicationTime":"2016-01-22 04:31:48 PM","landMark":""},{"id":401,"stationName":"Allen St & Rivington St","availableDocks":39,"totalDocks":43,"latitude":40.72019576,"longitude":-73.98997825,"statusValue":"In Service","statusKey":1,"availableBikes":3,"stAddress1":"Allen St & Rivington St","stAddress2":"","city":"","postalCode":"","location":"","altitude":"","testStation":false,"lastCommunicationTime":"2016-01-22 04:30:51 PM","landMark":""},{"id":402,"stationName":"Broadway & E 22 St","availableDocks":14,"totalDocks":42,"latitude":40.7403432,"longitude":-73.98955109,"statusValue":"In Service","statusKey":1,"availableBikes":26,"stAddress1":"Broadway & E 22 St","stAddress2":"","city":"","postalCode":"","location":"","altitude":"","testStation":false,"lastCommunicationTime":"2016-01-22 04:30:44 PM","landMark":""},{"id":403,"stationName":"E 2 St & 2 Ave","availableDocks":17,"totalDocks":31,"latitude":40.72502876,"longitude":-73.99069656,"statusValue":"In Service","statusKey":1,"availableBikes":12,"stAddress1":"E 2 St & 2 Ave","stAddress2":"","city":"","postalCode":"","location":"","altitude":"","testStation":false,"lastCommunicationTime":"2016-01-22 04:30:21 PM","landMark":""},{"id":405,"stationName":"Washington St & Gansevoort St","availableDocks":22,"totalDocks":40,"latitude":40.739323,"longitude":-74.008119,"statusValue":"In Service","statusKey":1,"availableBikes":18,"stAddress1":"Washington St & Gansevoort St","stAddress2":"","city":"","postalCode":"","location":"","altitude":"","testStation":false,"lastCommunicationTime":"2016-01-22 04:32:19 PM","landMark":""},{"id":406,"stationName":"Hicks St & Montague St","availableDocks":12,"totalDocks":34,"latitude":40.69512845,"longitude":-73.99595065,"statusValue":"In Service","statusKey":1,"availableBikes":22,"stAddress1":"Hicks St & Montague St","stAddress2":"","city":"","postalCode":"","location":"","altitude":"","testStation":false,"lastCommunicationTime":"2016-01-22 04:31:57 PM","landMark":""},{"id":407,"stationName":"Henry St & Poplar St","availableDocks":32,"totalDocks":37,"latitude":40.700469,"longitude":-73.991454,"statusValue":"In Service","statusKey":1,"availableBikes":5,"stAddress1":"Henry St & Poplar St","stAddress2":"","city":"","postalCode":"","location":"","altitude":"","testStation":false,"lastCommunicationTime":"2016-01-22 04:30:13 PM","landMark":""},{"id":408,"stationName":"Market St & Cherry St","availableDocks":20,"totalDocks":23,"latitude":40.71076228,"longitude":-73.99400398,"statusValue":"In Service","statusKey":1,"availableBikes":3,"stAddress1":"Market St & Cherry St","stAddress2":"","city":"","postalCode":"","location":"","altitude":"","testStation":false,"lastCommunicationTime":"2016-01-22 04:32:47 PM","landMark":""},{"id":409,"stationName":"DeKalb Ave & Skillman St","availableDocks":17,"totalDocks":19,"latitude":40.6906495,"longitude":-73.95643107,"statusValue":"In Service","statusKey":1,"availableBikes":2,"stAddress1":"DeKalb Ave & Skillman St","stAddress2":"","city":"","postalCode":"","location":"","altitude":"","testStation":false,"lastCommunicationTime":"2016-01-22 04:29:43 PM","landMark":""},{"id":410,"stationName":"Suffolk St & Stanton St","availableDocks":32,"totalDocks":35,"latitude":40.72066442,"longitude":-73.98517977,"statusValue":"In Service","statusKey":1,"availableBikes":3,"stAddress1":"Suffolk St & Stanton St","stAddress2":"","city":"","postalCode":"","location":"","altitude":"","testStation":false,"lastCommunicationTime":"2016-01-22 04:30:49 PM","landMark":""},{"id":411,"stationName":"E 6 St & Avenue D","availableDocks":19,"totalDocks":23,"latitude":40.72228087,"longitude":-73.97668709,"statusValue":"In Service","statusKey":1,"availableBikes":3,"stAddress1":"E 6 St & Avenue D","stAddress2":"","city":"","postalCode":"","location":"","altitude":"","testStation":false,"lastCommunicationTime":"2016-01-22 04:30:15 PM","landMark":""},{"id":412,"stationName":"Forsyth St & Canal St","availableDocks":25,"totalDocks":29,"latitude":40.7158155,"longitude":-73.99422366,"statusValue":"In Service","statusKey":1,"availableBikes":4,"stAddress1":"Forsyth St & Canal St","stAddress2":"","city":"","postalCode":"","location":"","altitude":"","testStation":false,"lastCommunicationTime":"2016-01-22 04:31:43 PM","landMark":""},{"id":414,"stationName":"Pearl St & Anchorage Pl","availableDocks":11,"totalDocks":24,"latitude":40.70281858,"longitude":-73.98765762,"statusValue":"In Service","statusKey":1,"availableBikes":13,"stAddress1":"Pearl St & Anchorage Pl","stAddress2":"","city":"","postalCode":"","location":"","altitude":"","testStation":false,"lastCommunicationTime":"2016-01-22 04:30:02 PM","landMark":""},{"id":415,"stationName":"Pearl St & Hanover Square","availableDocks":18,"totalDocks":42,"latitude":40.7047177,"longitude":-74.00926027,"statusValue":"In Service","statusKey":1,"availableBikes":24,"stAddress1":"Pearl St & Hanover Square","stAddress2":"","city":"","postalCode":"","location":"","altitude":"","testStation":false,"lastCommunicationTime":"2016-01-22 04:31:33 PM","landMark":""},{"id":416,"stationName":"Cumberland St & Lafayette Ave","availableDocks":28,"totalDocks":31,"latitude":40.68753406,"longitude":-73.97265183,"statusValue":"In Service","statusKey":1,"availableBikes":3,"stAddress1":"Cumberland St & Lafayette Ave","stAddress2":"","city":"","postalCode":"","location":"","altitude":"","testStation":false,"lastCommunicationTime":"2016-01-22 04:29:11 PM","landMark":""},{"id":417,"stationName":"Barclay St & Church St","availableDocks":5,"totalDocks":23,"latitude":40.71291224,"longitude":-74.01020234,"statusValue":"In Service","statusKey":1,"availableBikes":18,"stAddress1":"Barclay St & Church St","stAddress2":"","city":"","postalCode":"","location":"","altitude":"","testStation":false,"lastCommunicationTime":"2016-01-22 04:30:43 PM","landMark":""},{"id":418,"stationName":"Front St & Gold St","availableDocks":10,"totalDocks":23,"latitude":40.70224,"longitude":-73.982578,"statusValue":"In Service","statusKey":1,"availableBikes":12,"stAddress1":"Front St & Gold St","stAddress2":"","city":"","postalCode":"","location":"","altitude":"","testStation":false,"lastCommunicationTime":"2016-01-22 04:32:09 PM","landMark":""},{"id":419,"stationName":"Carlton Ave & Park Ave","availableDocks":22,"totalDocks":23,"latitude":40.69580705,"longitude":-73.97355569,"statusValue":"In Service","statusKey":1,"availableBikes":1,"stAddress1":"Carlton Ave & Park Ave","stAddress2":"","city":"","postalCode":"","location":"","altitude":"","testStation":false,"lastCommunicationTime":"2016-01-22 04:29:23 PM","landMark":""},{"id":420,"stationName":"Clermont Ave & Lafayette Ave","availableDocks":23,"totalDocks":23,"latitude":40.68764484,"longitude":-73.96968902,"statusValue":"In Service","statusKey":1,"availableBikes":0,"stAddress1":"Clermont Ave & Lafayette Ave","stAddress2":"","city":"","postalCode":"","location":"","altitude":"","testStation":false,"lastCommunicationTime":"2016-01-22 04:31:28 PM","landMark":""},{"id":421,"stationName":"Clermont Ave & Park Ave","availableDocks":9,"totalDocks":19,"latitude":40.69573398,"longitude":-73.97129668,"statusValue":"In Service","statusKey":1,"availableBikes":10,"stAddress1":"Clermont Ave & Park Ave","stAddress2":"","city":"","postalCode":"","location":"","altitude":"","testStation":false,"lastCommunicationTime":"2016-01-22 04:30:29 PM","landMark":""},{"id":422,"stationName":"W 59 St & 10 Ave","availableDocks":49,"totalDocks":55,"latitude":40.770513,"longitude":-73.988038,"statusValue":"In Service","statusKey":1,"availableBikes":5,"stAddress1":"W 59 St & 10 Ave","stAddress2":"","city":"","postalCode":"","location":"","altitude":"","testStation":false,"lastCommunicationTime":"2016-01-22 04:29:33 PM","landMark":""},{"id":423,"stationName":"W 54 St & 9 Ave","availableDocks":3,"totalDocks":3,"latitude":40.76584941,"longitude":-73.98690506,"statusValue":"Not In Service","statusKey":3,"availableBikes":0,"stAddress1":"W 54 St & 9 Ave","stAddress2":"","city":"","postalCode":"","location":"","altitude":"","testStation":false,"lastCommunicationTime":"2015-12-14 11:04:17 AM","landMark":""},{"id":426,"stationName":"West St & Chambers St","availableDocks":11,"totalDocks":31,"latitude":40.71754834,"longitude":-74.01322069,"statusValue":"In Service","statusKey":1,"availableBikes":19,"stAddress1":"West St & Chambers St","stAddress2":"","city":"","postalCode":"","location":"","altitude":"","testStation":false,"lastCommunicationTime":"2016-01-22 04:30:18 PM","landMark":""},{"id":427,"stationName":"Bus Slip & State St","availableDocks":15,"totalDocks":47,"latitude":40.701907,"longitude":-74.013942,"statusValue":"In Service","statusKey":1,"availableBikes":32,"stAddress1":"Bus Slip & State St","stAddress2":"","city":"","postalCode":"","location":"","altitude":"","testStation":false,"lastCommunicationTime":"2016-01-22 04:29:49 PM","landMark":""},{"id":428,"stationName":"E 3 St & 1 Ave","availableDocks":18,"totalDocks":31,"latitude":40.72467721,"longitude":-73.98783413,"statusValue":"In Service","statusKey":1,"availableBikes":11,"stAddress1":"E 3 St & 1 Ave","stAddress2":"","city":"","postalCode":"","location":"","altitude":"","testStation":false,"lastCommunicationTime":"2016-01-22 04:32:27 PM","landMark":""},{"id":430,"stationName":"York St & Jay St","availableDocks":2,"totalDocks":27,"latitude":40.7014851,"longitude":-73.98656928,"statusValue":"In Service","statusKey":1,"availableBikes":23,"stAddress1":"York St & Jay St","stAddress2":"","city":"","postalCode":"","location":"","altitude":"","testStation":false,"lastCommunicationTime":"2016-01-22 04:30:34 PM","landMark":""},{"id":432,"stationName":"E 7 St & Avenue A","availableDocks":30,"totalDocks":31,"latitude":40.72621788,"longitude":-73.98379855,"statusValue":"In Service","statusKey":1,"availableBikes":1,"stAddress1":"E 7 St & Avenue A","stAddress2":"","city":"","postalCode":"","location":"","altitude":"","testStation":false,"lastCommunicationTime":"2016-01-22 04:32:43 PM","landMark":""},{"id":433,"stationName":"E 13 St & Avenue A","availableDocks":39,"totalDocks":39,"latitude":40.72955361,"longitude":-73.98057249,"statusValue":"In Service","statusKey":1,"availableBikes":0,"stAddress1":"E 13 St & Avenue A","stAddress2":"","city":"","postalCode":"","location":"","altitude":"","testStation":false,"lastCommunicationTime":"2016-01-22 04:32:11 PM","landMark":""},{"id":434,"stationName":"9 Ave & W 18 St","availableDocks":21,"totalDocks":27,"latitude":40.74317449,"longitude":-74.00366443,"statusValue":"In Service","statusKey":1,"availableBikes":6,"stAddress1":"9 Ave & W 18 St","stAddress2":"","city":"","postalCode":"","location":"","altitude":"","testStation":false,"lastCommunicationTime":"2016-01-22 04:30:56 PM","landMark":""},{"id":435,"stationName":"W 21 St & 6 Ave","availableDocks":10,"totalDocks":47,"latitude":40.74173969,"longitude":-73.99415556,"statusValue":"In Service","statusKey":1,"availableBikes":34,"stAddress1":"W 21 St & 6 Ave","stAddress2":"","city":"","postalCode":"","location":"","altitude":"","testStation":false,"lastCommunicationTime":"2016-01-22 04:31:28 PM","landMark":""},{"id":436,"stationName":"Hancock St & Bedford Ave","availableDocks":19,"totalDocks":27,"latitude":40.68216564,"longitude":-73.95399026,"statusValue":"In Service","statusKey":1,"availableBikes":8,"stAddress1":"Hancock St & Bedford Ave","stAddress2":"","city":"","postalCode":"","location":"","altitude":"","testStation":false,"lastCommunicationTime":"2016-01-22 04:28:54 PM","landMark":""},{"id":437,"stationName":"Macon St & Nostrand Ave","availableDocks":16,"totalDocks":24,"latitude":40.6809833854,"longitude":-73.9500479759,"statusValue":"In Service","statusKey":1,"availableBikes":8,"stAddress1":"Macon St & Nostrand Ave","stAddress2":"","city":"","postalCode":"","location":"","altitude":"","testStation":false,"lastCommunicationTime":"2016-01-22 04:29:52 PM","landMark":""},{"id":438,"stationName":"St Marks Pl & 1 Ave","availableDocks":25,"totalDocks":27,"latitude":40.72779126,"longitude":-73.98564945,"statusValue":"In Service","statusKey":1,"availableBikes":1,"stAddress1":"St Marks Pl & 1 Ave","stAddress2":"","city":"","postalCode":"","location":"","altitude":"","testStation":false,"lastCommunicationTime":"2016-01-22 04:31:27 PM","landMark":""},{"id":439,"stationName":"E 4 St & 2 Ave","availableDocks":31,"totalDocks":39,"latitude":40.7262807,"longitude":-73.98978041,"statusValue":"In Service","statusKey":1,"availableBikes":6,"stAddress1":"E 4 St & 2 Ave","stAddress2":"","city":"","postalCode":"","location":"","altitude":"","testStation":false,"lastCommunicationTime":"2016-01-22 04:29:28 PM","landMark":""},{"id":440,"stationName":"E 45 St & 3 Ave","availableDocks":26,"totalDocks":32,"latitude":40.75255434,"longitude":-73.97282625,"statusValue":"In Service","statusKey":1,"availableBikes":6,"stAddress1":"E 45 St & 3 Ave","stAddress2":"","city":"","postalCode":"","location":"","altitude":"","testStation":false,"lastCommunicationTime":"2016-01-22 04:29:22 PM","landMark":""},{"id":441,"stationName":"E 52 St & 2 Ave","availableDocks":29,"totalDocks":35,"latitude":40.756014,"longitude":-73.967416,"statusValue":"In Service","statusKey":1,"availableBikes":5,"stAddress1":"E 52 St & 2 Ave","stAddress2":"","city":"","postalCode":"","location":"","altitude":"","testStation":false,"lastCommunicationTime":"2016-01-22 04:32:45 PM","landMark":""},{"id":442,"stationName":"W 27 St & 7 Ave","availableDocks":24,"totalDocks":51,"latitude":40.746647,"longitude":-73.993915,"statusValue":"In Service","statusKey":1,"availableBikes":24,"stAddress1":"W 27 St & 7 Ave","stAddress2":"","city":"","postalCode":"","location":"","altitude":"","testStation":false,"lastCommunicationTime":"2016-01-22 04:31:15 PM","landMark":""},{"id":443,"stationName":"Bedford Ave & S 9 St","availableDocks":21,"totalDocks":23,"latitude":40.70853074,"longitude":-73.96408963,"statusValue":"In Service","statusKey":1,"availableBikes":2,"stAddress1":"Bedford Ave & S 9 St","stAddress2":"","city":"","postalCode":"","location":"","altitude":"","testStation":false,"lastCommunicationTime":"2016-01-22 04:29:32 PM","landMark":""},{"id":444,"stationName":"Broadway & W 24 St","availableDocks":5,"totalDocks":52,"latitude":40.7423543,"longitude":-73.98915076,"statusValue":"In Service","statusKey":1,"availableBikes":43,"stAddress1":"Broadway & W 24 St","stAddress2":"","city":"","postalCode":"","location":"","altitude":"","testStation":false,"lastCommunicationTime":"2016-01-22 04:32:07 PM","landMark":""},{"id":445,"stationName":"E 10 St & Avenue A","availableDocks":21,"totalDocks":42,"latitude":40.72740794,"longitude":-73.98142006,"statusValue":"In Service","statusKey":1,"availableBikes":21,"stAddress1":"E 10 St & Avenue A","stAddress2":"","city":"","postalCode":"","location":"","altitude":"","testStation":false,"lastCommunicationTime":"2016-01-22 04:29:39 PM","landMark":""},{"id":446,"stationName":"W 24 St & 7 Ave","availableDocks":22,"totalDocks":39,"latitude":40.74487634,"longitude":-73.99529885,"statusValue":"In Service","statusKey":1,"availableBikes":12,"stAddress1":"W 24 St & 7 Ave","stAddress2":"","city":"","postalCode":"","location":"","altitude":"","testStation":false,"lastCommunicationTime":"2016-01-22 04:30:01 PM","landMark":""},{"id":447,"stationName":"8 Ave & W 52 St","availableDocks":20,"totalDocks":31,"latitude":40.76370739,"longitude":-73.9851615,"statusValue":"In Service","statusKey":1,"availableBikes":6,"stAddress1":"8 Ave & W 52 St","stAddress2":"","city":"","postalCode":"","location":"","altitude":"","testStation":false,"lastCommunicationTime":"2016-01-22 04:28:56 PM","landMark":""},{"id":448,"stationName":"W 37 St & 10 Ave","availableDocks":28,"totalDocks":31,"latitude":40.75660359,"longitude":-73.9979009,"statusValue":"In Service","statusKey":1,"availableBikes":1,"stAddress1":"W 37 St & 10 Ave","stAddress2":"","city":"","postalCode":"","location":"","altitude":"","testStation":false,"lastCommunicationTime":"2016-01-22 04:31:25 PM","landMark":""},{"id":449,"stationName":"W 52 St & 9 Ave","availableDocks":29,"totalDocks":31,"latitude":40.76461837,"longitude":-73.98789473,"statusValue":"In Service","statusKey":1,"availableBikes":1,"stAddress1":"W 52 St & 9 Ave","stAddress2":"","city":"","postalCode":"","location":"","altitude":"","testStation":false,"lastCommunicationTime":"2016-01-22 04:29:29 PM","landMark":""},{"id":450,"stationName":"W 49 St & 8 Ave","availableDocks":53,"totalDocks":59,"latitude":40.76227205,"longitude":-73.98788205,"statusValue":"In Service","statusKey":1,"availableBikes":6,"stAddress1":"W 49 St & 8 Ave","stAddress2":"","city":"","postalCode":"","location":"","altitude":"","testStation":false,"lastCommunicationTime":"2016-01-22 04:32:18 PM","landMark":""},{"id":453,"stationName":"W 22 St & 8 Ave","availableDocks":26,"totalDocks":39,"latitude":40.74475148,"longitude":-73.99915362,"statusValue":"In Service","statusKey":1,"availableBikes":13,"stAddress1":"W 22 St & 8 Ave","stAddress2":"","city":"","postalCode":"","location":"","altitude":"","testStation":false,"lastCommunicationTime":"2016-01-22 04:32:37 PM","landMark":""},{"id":454,"stationName":"E 51 St & 1 Ave","availableDocks":33,"totalDocks":35,"latitude":40.75455731,"longitude":-73.96592976,"statusValue":"In Service","statusKey":1,"availableBikes":2,"stAddress1":"E 51 St & 1 Ave","stAddress2":"","city":"","postalCode":"","location":"","altitude":"","testStation":false,"lastCommunicationTime":"2016-01-22 04:32:47 PM","landMark":""},{"id":455,"stationName":"1 Ave & E 44 St","availableDocks":0,"totalDocks":39,"latitude":40.75001986,"longitude":-73.96905301,"statusValue":"Not In Service","statusKey":1,"availableBikes":0,"stAddress1":"1 Ave & E 44 St","stAddress2":"","city":"","postalCode":"","location":"","altitude":"","testStation":false,"lastCommunicationTime":"2016-01-22 04:32:26 PM","landMark":""},{"id":456,"stationName":"E 53 St & Madison Ave","availableDocks":20,"totalDocks":35,"latitude":40.7597108,"longitude":-73.97402311,"statusValue":"In Service","statusKey":1,"availableBikes":14,"stAddress1":"E 53 St & Madison Ave","stAddress2":"","city":"","postalCode":"","location":"","altitude":"","testStation":false,"lastCommunicationTime":"2016-01-22 04:31:01 PM","landMark":""},{"id":457,"stationName":"Broadway & W 58 St","availableDocks":16,"totalDocks":39,"latitude":40.76695317,"longitude":-73.98169333,"statusValue":"In Service","statusKey":1,"availableBikes":21,"stAddress1":"Broadway & W 58 St","stAddress2":"","city":"","postalCode":"","location":"","altitude":"","testStation":false,"lastCommunicationTime":"2016-01-22 04:31:48 PM","landMark":""},{"id":458,"stationName":"11 Ave & W 27 St","availableDocks":8,"totalDocks":31,"latitude":40.751396,"longitude":-74.005226,"statusValue":"In Service","statusKey":1,"availableBikes":23,"stAddress1":"11 Ave & W 27 St","stAddress2":"","city":"","postalCode":"","location":"","altitude":"","testStation":false,"lastCommunicationTime":"2016-01-22 04:30:39 PM","landMark":""},{"id":459,"stationName":"W 20 St & 11 Ave","availableDocks":22,"totalDocks":49,"latitude":40.746745,"longitude":-74.007756,"statusValue":"In Service","statusKey":1,"availableBikes":25,"stAddress1":"W 20 St & 11 Ave","stAddress2":"","city":"","postalCode":"","location":"","altitude":"","testStation":false,"lastCommunicationTime":"2016-01-22 04:32:22 PM","landMark":""},{"id":460,"stationName":"S 4 St & Wythe Ave","availableDocks":5,"totalDocks":23,"latitude":40.71285887,"longitude":-73.96590294,"statusValue":"In Service","statusKey":1,"availableBikes":18,"stAddress1":"S 4 St & Wythe Ave","stAddress2":"","city":"","postalCode":"","location":"","altitude":"","testStation":false,"lastCommunicationTime":"2016-01-22 04:30:06 PM","landMark":""},{"id":461,"stationName":"E 20 St & 2 Ave","availableDocks":37,"totalDocks":39,"latitude":40.73587678,"longitude":-73.98205027,"statusValue":"In Service","statusKey":1,"availableBikes":2,"stAddress1":"E 20 St & 2 Ave","stAddress2":"","city":"","postalCode":"","location":"","altitude":"","testStation":false,"lastCommunicationTime":"2016-01-22 04:30:23 PM","landMark":""},{"id":462,"stationName":"W 22 St & 10 Ave","availableDocks":34,"totalDocks":47,"latitude":40.74691959,"longitude":-74.00451887,"statusValue":"In Service","statusKey":1,"availableBikes":13,"stAddress1":"W 22 St & 10 Ave","stAddress2":"","city":"","postalCode":"","location":"","altitude":"","testStation":false,"lastCommunicationTime":"2016-01-22 04:32:21 PM","landMark":""},{"id":463,"stationName":"9 Ave & W 16 St","availableDocks":8,"totalDocks":25,"latitude":40.74206539,"longitude":-74.00443172,"statusValue":"In Service","statusKey":1,"availableBikes":16,"stAddress1":"9 Ave & W 16 St","stAddress2":"","city":"","postalCode":"","location":"","altitude":"","testStation":false,"lastCommunicationTime":"2016-01-22 04:31:36 PM","landMark":""},{"id":465,"stationName":"Broadway & W 41 St","availableDocks":36,"totalDocks":39,"latitude":40.75513557,"longitude":-73.98658032,"statusValue":"In Service","statusKey":1,"availableBikes":1,"stAddress1":"Broadway & W 41 St","stAddress2":"","city":"","postalCode":"","location":"","altitude":"","testStation":false,"lastCommunicationTime":"2016-01-22 04:32:12 PM","landMark":""},{"id":466,"stationName":"W 25 St & 6 Ave","availableDocks":21,"totalDocks":35,"latitude":40.74395411,"longitude":-73.99144871,"statusValue":"In Service","statusKey":1,"availableBikes":14,"stAddress1":"W 25 St & 6 Ave","stAddress2":"","city":"","postalCode":"","location":"","altitude":"","testStation":false,"lastCommunicationTime":"2016-01-22 04:31:10 PM","landMark":""},{"id":467,"stationName":"Dean St & 4 Ave","availableDocks":11,"totalDocks":34,"latitude":40.68312489,"longitude":-73.97895137,"statusValue":"In Service","statusKey":1,"availableBikes":23,"stAddress1":"Dean St & 4 Ave","stAddress2":"","city":"","postalCode":"","location":"","altitude":"","testStation":false,"lastCommunicationTime":"2016-01-22 04:29:47 PM","landMark":""},{"id":468,"stationName":"Broadway & W 55 St","availableDocks":57,"totalDocks":59,"latitude":40.7652654,"longitude":-73.98192338,"statusValue":"In Service","statusKey":1,"availableBikes":0,"stAddress1":"Broadway & W 55 St","stAddress2":"","city":"","postalCode":"","location":"","altitude":"","testStation":false,"lastCommunicationTime":"2016-01-22 04:29:57 PM","landMark":""},{"id":469,"stationName":"Broadway & W 53 St","availableDocks":56,"totalDocks":57,"latitude":40.76344058,"longitude":-73.98268129,"statusValue":"In Service","statusKey":1,"availableBikes":0,"stAddress1":"Broadway & W 53 St","stAddress2":"","city":"","postalCode":"","location":"","altitude":"","testStation":false,"lastCommunicationTime":"2016-01-22 04:30:07 PM","landMark":""},{"id":470,"stationName":"W 20 St & 8 Ave","availableDocks":29,"totalDocks":37,"latitude":40.74345335,"longitude":-74.00004031,"statusValue":"In Service","statusKey":1,"availableBikes":8,"stAddress1":"W 20 St & 8 Ave","stAddress2":"","city":"","postalCode":"","location":"","altitude":"","testStation":false,"lastCommunicationTime":"2016-01-22 04:30:37 PM","landMark":""},{"id":471,"stationName":"Grand St & Havemeyer St","availableDocks":7,"totalDocks":31,"latitude":40.71286844,"longitude":-73.95698119,"statusValue":"In Service","statusKey":1,"availableBikes":24,"stAddress1":"Grand St & Havemeyer St","stAddress2":"","city":"","postalCode":"","location":"","altitude":"","testStation":false,"lastCommunicationTime":"2016-01-22 04:29:02 PM","landMark":""},{"id":472,"stationName":"E 32 St & Park Ave","availableDocks":40,"totalDocks":41,"latitude":40.7457121,"longitude":-73.98194829,"statusValue":"In Service","statusKey":1,"availableBikes":0,"stAddress1":"E 32 St & Park Ave","stAddress2":"","city":"","postalCode":"","location":"","altitude":"","testStation":false,"lastCommunicationTime":"2016-01-22 04:29:18 PM","landMark":""},{"id":473,"stationName":"Rivington St & Chrystie St","availableDocks":33,"totalDocks":38,"latitude":40.72110063,"longitude":-73.9919254,"statusValue":"In Service","statusKey":1,"availableBikes":4,"stAddress1":"Rivington St & Chrystie St","stAddress2":"","city":"","postalCode":"","location":"","altitude":"","testStation":false,"lastCommunicationTime":"2016-01-22 04:32:11 PM","landMark":""},{"id":474,"stationName":"5 Ave & E 29 St","availableDocks":24,"totalDocks":47,"latitude":40.7451677,"longitude":-73.98683077,"statusValue":"In Service","statusKey":1,"availableBikes":23,"stAddress1":"5 Ave & E 29 St","stAddress2":"","city":"","postalCode":"","location":"","altitude":"","testStation":false,"lastCommunicationTime":"2016-01-22 04:31:42 PM","landMark":""},{"id":475,"stationName":"E 16 St & Irving Pl","availableDocks":21,"totalDocks":37,"latitude":40.73524276,"longitude":-73.98758561,"statusValue":"In Service","statusKey":1,"availableBikes":16,"stAddress1":"E 16 St & Irving Pl","stAddress2":"","city":"","postalCode":"","location":"","altitude":"","testStation":false,"lastCommunicationTime":"2016-01-22 04:30:28 PM","landMark":""},{"id":476,"stationName":"E 31 St & 3 Ave","availableDocks":46,"totalDocks":47,"latitude":40.74394314,"longitude":-73.97966069,"statusValue":"In Service","statusKey":1,"availableBikes":1,"stAddress1":"E 31 St & 3 Ave","stAddress2":"","city":"","postalCode":"","location":"","altitude":"","testStation":false,"lastCommunicationTime":"2016-01-22 04:29:26 PM","landMark":""},{"id":477,"stationName":"W 41 St & 8 Ave","availableDocks":14,"totalDocks":59,"latitude":40.75640548,"longitude":-73.9900262,"statusValue":"In Service","statusKey":1,"availableBikes":42,"stAddress1":"W 41 St & 8 Ave","stAddress2":"","city":"","postalCode":"","location":"","altitude":"","testStation":false,"lastCommunicationTime":"2016-01-22 04:32:40 PM","landMark":""},{"id":478,"stationName":"11 Ave & W 41 St","availableDocks":28,"totalDocks":31,"latitude":40.76030096,"longitude":-73.99884222,"statusValue":"In Service","statusKey":1,"availableBikes":3,"stAddress1":"11 Ave & W 41 St","stAddress2":"","city":"","postalCode":"","location":"","altitude":"","testStation":false,"lastCommunicationTime":"2016-01-22 04:31:27 PM","landMark":""},{"id":479,"stationName":"9 Ave & W 45 St","availableDocks":18,"totalDocks":31,"latitude":40.76019252,"longitude":-73.9912551,"statusValue":"In Service","statusKey":1,"availableBikes":11,"stAddress1":"9 Ave & W 45 St","stAddress2":"","city":"","postalCode":"","location":"","altitude":"","testStation":false,"lastCommunicationTime":"2016-01-22 04:29:40 PM","landMark":""},{"id":480,"stationName":"W 53 St & 10 Ave","availableDocks":26,"totalDocks":27,"latitude":40.76669671,"longitude":-73.99061728,"statusValue":"In Service","statusKey":1,"availableBikes":0,"stAddress1":"W 53 St & 10 Ave","stAddress2":"","city":"","postalCode":"","location":"","altitude":"","testStation":false,"lastCommunicationTime":"2016-01-22 04:31:40 PM","landMark":""},{"id":481,"stationName":"S 3 St & Bedford Ave","availableDocks":14,"totalDocks":25,"latitude":40.71260486,"longitude":-73.96264403,"statusValue":"In Service","statusKey":1,"availableBikes":11,"stAddress1":"S 3 St & Bedford Ave","stAddress2":"","city":"","postalCode":"","location":"","altitude":"","testStation":false,"lastCommunicationTime":"2016-01-22 04:29:39 PM","landMark":""},{"id":482,"stationName":"W 15 St & 7 Ave","availableDocks":36,"totalDocks":39,"latitude":40.73935542,"longitude":-73.99931783,"statusValue":"In Service","statusKey":1,"availableBikes":3,"stAddress1":"W 15 St & 7 Ave","stAddress2":"","city":"","postalCode":"","location":"","altitude":"","testStation":false,"lastCommunicationTime":"2016-01-22 04:32:05 PM","landMark":""},{"id":483,"stationName":"E 12 St & 3 Ave","availableDocks":31,"totalDocks":35,"latitude":40.73223272,"longitude":-73.98889957,"statusValue":"In Service","statusKey":1,"availableBikes":3,"stAddress1":"E 12 St & 3 Ave","stAddress2":"","city":"","postalCode":"","location":"","altitude":"","testStation":false,"lastCommunicationTime":"2016-01-22 04:32:29 PM","landMark":""},{"id":484,"stationName":"W 44 St & 5 Ave","availableDocks":32,"totalDocks":44,"latitude":40.75500254,"longitude":-73.98014437,"statusValue":"In Service","statusKey":1,"availableBikes":11,"stAddress1":"W 44 St & 5 Ave","stAddress2":"","city":"","postalCode":"","location":"","altitude":"","testStation":false,"lastCommunicationTime":"2016-01-22 04:32:33 PM","landMark":""},{"id":485,"stationName":"W 37 St & 5 Ave","availableDocks":35,"totalDocks":39,"latitude":40.75038009,"longitude":-73.98338988,"statusValue":"In Service","statusKey":1,"availableBikes":1,"stAddress1":"W 37 St & 5 Ave","stAddress2":"","city":"","postalCode":"","location":"","altitude":"","testStation":false,"lastCommunicationTime":"2016-01-22 04:30:09 PM","landMark":""},{"id":486,"stationName":"Broadway & W 29 St","availableDocks":33,"totalDocks":39,"latitude":40.7462009,"longitude":-73.98855723,"statusValue":"In Service","statusKey":1,"availableBikes":4,"stAddress1":"Broadway & W 29 St","stAddress2":"","city":"","postalCode":"","location":"","altitude":"","testStation":false,"lastCommunicationTime":"2016-01-22 04:31:31 PM","landMark":""},{"id":487,"stationName":"E 20 St & FDR Drive","availableDocks":28,"totalDocks":36,"latitude":40.73314259,"longitude":-73.97573881,"statusValue":"In Service","statusKey":1,"availableBikes":8,"stAddress1":"E 20 St & FDR Drive","stAddress2":"","city":"","postalCode":"","location":"","altitude":"","testStation":false,"lastCommunicationTime":"2016-01-22 04:32:05 PM","landMark":""},{"id":488,"stationName":"W 39 St & 9 Ave","availableDocks":25,"totalDocks":41,"latitude":40.75645824,"longitude":-73.99372222,"statusValue":"In Service","statusKey":1,"availableBikes":14,"stAddress1":"W 39 St & 9 Ave","stAddress2":"","city":"","postalCode":"","location":"","altitude":"","testStation":false,"lastCommunicationTime":"2016-01-22 04:30:15 PM","landMark":""},{"id":489,"stationName":"10 Ave & W 28 St","availableDocks":34,"totalDocks":37,"latitude":40.75066386,"longitude":-74.00176802,"statusValue":"In Service","statusKey":1,"availableBikes":3,"stAddress1":"10 Ave & W 28 St","stAddress2":"","city":"","postalCode":"","location":"","altitude":"","testStation":false,"lastCommunicationTime":"2016-01-22 04:30:30 PM","landMark":""},{"id":490,"stationName":"8 Ave & W 33 St","availableDocks":19,"totalDocks":59,"latitude":40.751551,"longitude":-73.993934,"statusValue":"In Service","statusKey":1,"availableBikes":36,"stAddress1":"8 Ave & W 33 St","stAddress2":"","city":"","postalCode":"","location":"","altitude":"","testStation":false,"lastCommunicationTime":"2016-01-22 04:32:20 PM","landMark":""},{"id":491,"stationName":"E 24 St & Park Ave S","availableDocks":32,"totalDocks":53,"latitude":40.74096374,"longitude":-73.98602213,"statusValue":"In Service","statusKey":1,"availableBikes":19,"stAddress1":"E 24 St & Park Ave S","stAddress2":"","city":"","postalCode":"","location":"","altitude":"","testStation":false,"lastCommunicationTime":"2016-01-22 04:30:13 PM","landMark":""},{"id":492,"stationName":"W 33 St & 7 Ave","availableDocks":0,"totalDocks":49,"latitude":40.75019995,"longitude":-73.99093085,"statusValue":"In Service","statusKey":1,"availableBikes":46,"stAddress1":"W 33 St & 7 Ave","stAddress2":"","city":"","postalCode":"","location":"","altitude":"","testStation":false,"lastCommunicationTime":"2016-01-22 04:29:49 PM","landMark":""},{"id":493,"stationName":"W 45 St & 6 Ave","availableDocks":12,"totalDocks":34,"latitude":40.7568001,"longitude":-73.98291153,"statusValue":"In Service","statusKey":1,"availableBikes":16,"stAddress1":"W 45 St & 6 Ave","stAddress2":"","city":"","postalCode":"","location":"","altitude":"","testStation":false,"lastCommunicationTime":"2016-01-22 04:32:23 PM","landMark":""},{"id":494,"stationName":"W 26 St & 8 Ave","availableDocks":23,"totalDocks":35,"latitude":40.74734825,"longitude":-73.99723551,"statusValue":"In Service","statusKey":1,"availableBikes":12,"stAddress1":"W 26 St & 8 Ave","stAddress2":"","city":"","postalCode":"","location":"","altitude":"","testStation":false,"lastCommunicationTime":"2016-01-22 04:31:30 PM","landMark":""},{"id":495,"stationName":"W 47 St & 10 Ave","availableDocks":23,"totalDocks":25,"latitude":40.76269882,"longitude":-73.99301222,"statusValue":"In Service","statusKey":1,"availableBikes":2,"stAddress1":"W 47 St & 10 Ave","stAddress2":"","city":"","postalCode":"","location":"","altitude":"","testStation":false,"lastCommunicationTime":"2016-01-22 04:30:05 PM","landMark":""},